Recv from 127.0.0.1:4225, Data:$GPRMC,020749.00,V,,,,,,,120422,,,N*72
$GP, Tue Apr 12 10:07:48 2022
Recv from 127.0.0.1:4225, Data:$GPRMC,020751.00,V,,,,,,,120422,,,N*7B
$GP, Tue Apr 12 10:07:50 2022
Recv from 127.0.0.1:4225, Data:$GPRMC,020753.00,V,,,,,,,120422,,,N*79
$GP, Tue Apr 12 10:07:52 2022
Recv from 127.0.0.1:4225, Data:$GPRMC,020755.00,V,,,,,,,120422,,,N*7F
$GP, Tue Apr 12 10:07:54 2022
Recv from 127.0.0.1:4225, Data:$GPRMC,020757.00,V,,,,,,,120422,,,N*7D
$GP, Tue Apr 12 10:07:56 2022
Recv from 127.0.0.1:4225, Data:$GPRMC,020759.00,V,,,,,,,120422,,,N*73
$GP, Tue Apr 12 10:07:58 2022
Recv from 127.0.0.1:4225, Data:$GPRMC,020801.00,V,,,,,,,120422,,,N*71
$GP, Tue Apr 12 10:08:00 2022
Recv from 127.0.0.1:4225, Data:$GPRMC,020803.00,V,,,,,,,120422,,,N*73
$GP, Tue Apr 12 10:08:01 2022
Recv from 127.0.0.1:4225, Data:$GPRMC,020805.00,V,,,,,,,120422,,,N*75
$GP, Tue Apr 12 10:08:03 2022
Recv from 127.0.0.1:4225, Data:$GPRMC,020807.00,V,,,,,,,120422,,,N*77
$GP, Tue Apr 12 10:08:05 2022
Recv from 127.0.0.1:4225, Data:$GPRMC,020809.00,V,,,,,,,120422,,,N*79
$GP, Tue Apr 12 10:08:07 2022
Recv from 127.0.0.1:4225, Data:$GPRMC,020811.00,V,,,,,,,120422,,,N*70
$GP, Tue Apr 12 10:08:09 2022
Recv from 127.0.0.1:4225, Data:$GPRMC,020813.00,V,,,,,,,120422,,,N*72
$GP, Tue Apr 12 10:08:11 2022
Recv from 127.0.0.1:4225, Data:$GPRMC,020815.00,V,,,,,,,120422,,,N*74
$GP, Tue Apr 12 10:08:13 2022
Recv from 127.0.0.1:4225, Data:$GPRMC,020817.00,V,,,,,,,120422,,,N*76
$GP, Tue Apr 12 10:08:15 2022
Recv from 127.0.0.1:4225, Data:$GPRMC,020819.00,V,,,,,,,120422,,,N*78
$GP, Tue Apr 12 10:08:17 2022
Recv from 127.0.0.1:4225, Data:$GPRMC,020820.98,V,,,,,,,120422,,,N*73
$GP, Tue Apr 12 10:08:19 2022
Recv from 127.0.0.1:4225, Data:$GPRMC,020820.98,V,,,,,,,120422,,,N*73
$GP, Tue Apr 12 10:08:21 2022
Recv from 127.0.0.1:4225, Data:$GPRMC,020823.00,V,,,,,,,120422,,,N*71
$GP, Tue Apr 12 10:08:23 2022
Recv from 127.0.0.1:4225, Data:$GPRMC,020825.00,V,,,,,,,120422,,,N*77
$GP, Tue Apr 12 10:08:24 2022
Recv from 127.0.0.1:4225, Data:$GPRMC,020827.00,V,,,,,,,120422,,,N*75
$GP, Tue Apr 12 10:08:26 2022
Recv from 127.0.0.1:4225, Data:$GPRMC,020829.00,V,,,,,,,120422,,,N*7B
$GP, Tue Apr 12 10:08:28 2022
Recv from 127.0.0.1:4225, Data:$GPRMC,020831.00,V,,,,,,,120422,,,N*72
$GP, Tue Apr 12 10:08:30 2022
Recv from 127.0.0.1:4225, Data:$GPRMC,020833.00,V,,,,,,,120422,,,N*70
$GP, Tue Apr 12 10:08:32 2022
Recv from 127.0.0.1:4225, Data:$GPRMC,020835.00,V,,,,,,,120422,,,N*76
$GP, Tue Apr 12 10:08:34 2022
Recv from 127.0.0.1:4225, Data:$GPRMC,020837.00,V,,,,,,,120422,,,N*74
$GP, Tue Apr 12 10:08:36 2022
Recv from 127.0.0.1:4225, Data:$GPRMC,020836.00,V,,,,,,,120422,,,N*75
$GP, Tue Apr 12 10:08:38 2022
Recv from 127.0.0.1:4225, Data:$GPRMC,020838.00,V,,,,,,,120422,,,N*7B
$GP, Tue Apr 12 10:08:40 2022
Recv from 127.0.0.1:4225, Data:$GPRMC,020840.00,V,,,,,,,120422,,,N*74
$GP, Tue Apr 12 10:08:42 2022
Recv from 127.0.0.1:4225, Data:$GPRMC,020842.00,V,,,,,,,120422,,,N*76
$GP, Tue Apr 12 10:08:44 2022
Recv from 127.0.0.1:4225, Data:$GPRMC,020844.00,V,,,,,,,120422,,,N*70
$GP, Tue Apr 12 10:08:46 2022
Recv from 127.0.0.1:4225, Data:$GPRMC,020846.00,V,,,,,,,120422,,,N*72
$GP, Tue Apr 12 10:08:47 2022
Recv from 127.0.0.1:4225, Data:$GPRMC,020848.00,V,,,,,,,120422,,,N*7C
$GP, Tue Apr 12 10:08:49 2022
Recv from 127.0.0.1:4225, Data:$GPRMC,020850.00,V,,,,,,,120422,,,N*75
$GP, Tue Apr 12 10:08:51 2022
Recv from 127.0.0.1:4225, Data:$GPRMC,020852.00,V,,,,,,,120422,,,N*77
$GP, Tue Apr 12 10:08:53 2022
Recv from 127.0.0.1:4225, Data:$GPRMC,020854.00,V,,,,,,,120422,,,N*71
$GP, Tue Apr 12 10:08:55 2022
Recv from 127.0.0.1:4225, Data:$GPRMC,020856.00,V,,,,,,,120422,,,N*73
$GP, Tue Apr 12 10:08:57 2022
Recv from 127.0.0.1:4225, Data:$GPRMC,020858.00,V,,,,,,,120422,,,N*7D
$GP, Tue Apr 12 10:08:59 2022
Recv from 127.0.0.1:4225, Data:$GPRMC,020900.00,V,,,,,,,120422,,,N*71
$GP, Tue Apr 12 10:09:01 2022
Recv from 127.0.0.1:4225, Data:$GPRMC,020902.00,V,,,,,,,120422,,,N*73
$GP, Tue Apr 12 10:09:03 2022
Recv from 127.0.0.1:4225, Data:$GPRMC,020902.00,V,,,,,,,120422,,,N*73
$GP, Tue Apr 12 10:09:05 2022
Recv from 127.0.0.1:4225, Data:$GPRMC,020904.00,V,,,,,,,120422,,,N*75
$GP, Tue Apr 12 10:09:07 2022
Recv from 127.0.0.1:4225, Data:$GPRMC,020906.00,V,,,,,,,120422,,,N*77
$GP, Tue Apr 12 10:09:08 2022
Recv from 127.0.0.1:4225, Data:$GPRMC,020908.00,V,,,,,,,120422,,,N*79
$GP, Tue Apr 12 10:09:10 2022
Recv from 127.0.0.1:4225, Data:$GPRMC,020910.00,V,,,,,,,120422,,,N*70
$GP, Tue Apr 12 10:09:12 2022
Recv from 127.0.0.1:4225, Data:$GPRMC,020912.00,V,,,,,,,120422,,,N*72
$GP, Tue Apr 12 10:09:14 2022
Recv from 127.0.0.1:4225, Data:$GPRMC,020914.00,V,,,,,,,120422,,,N*74
$GP, Tue Apr 12 10:09:16 2022
Recv from 127.0.0.1:4225, Data:$GPRMC,020916.00,V,,,,,,,12, Tue Apr 12 10:09:18 2022
Recv from 127.0.0.1:4331, Data:$GPRMC,020959.00,A,3958.84576,N,11620.45023, Tue Apr 12 10:09:59 2022
Recv from 127.0.0.1:4960, Data:$GPRMC,022013.00,A,3958.79145,N,11620.42801, Tue Apr 12 10:20:13 2022
Recv from 127.0.0.1:4960, Data:$GPRMC,022015.00,A,3958.79164,N,11620.42796, Tue Apr 12 10:20:15 2022
Recv from 127.0.0.1:4960, Data:$GPRMC,022017.00,A,3958.79181,N,11620.42792, Tue Apr 12 10:20:17 2022
Recv from 127.0.0.1:4960, Data:$GPRMC,022019.00,A,3958.79192,N,11620.42792, Tue Apr 12 10:20:19 2022
Recv from 127.0.0.1:4960, Data:$GPRMC,022021.00,A,3958.79201,N,11620.42791, Tue Apr 12 10:20:21 2022
Recv from 127.0.0.1:4960, Data:$GPRMC,022023.00,A,3958.79211,N,11620.42788, Tue Apr 12 10:20:23 2022
Recv from 127.0.0.1:4960, Data:$GPRMC,022025.00,A,3958.79220,N,11620.42786, Tue Apr 12 10:20:25 2022
Recv from 127.0.0.1:4960, Data:$GPRMC,022027.00,A,3958.79225,N,11620.42784, Tue Apr 12 10:20:27 2022
Recv from 127.0.0.1:4960, Data:$GPRMC,022029.00,A,3958.79231,N,11620.42785, Tue Apr 12 10:20:29 2022
Recv from 127.0.0.1:4960, Data:$GPRMC,022030.00,A,3958.79231,N,11620.42786, Tue Apr 12 10:20:31 2022
Recv from 127.0.0.1:4960, Data:$GPRMC,022032.00,A,3958.79231,N,11620.42786, Tue Apr 12 10:20:33 2022
Recv from 127.0.0.1:4960, Data:$GPRMC,022034.00,A,3958.79222,N,11620.42788, Tue Apr 12 10:20:35 2022
Recv from 127.0.0.1:4960, Data:$GPRMC,022036.00,A,3958.79216,N,11620.42790, Tue Apr 12 10:20:36 2022
Recv from 127.0.0.1:4960, Data:$GPRMC,022038.00,A,3958.79204,N,11620.42792, Tue Apr 12 10:20:38 2022
Recv from 127.0.0.1:4960, Data:$GPRMC,022040.00,A,3958.79180,N,11620.42797, Tue Apr 12 10:20:40 2022
Recv from 127.0.0.1:4960, Data:$GPRMC,022042.00,A,3958.79153,N,11620.42805, Tue Apr 12 10:20:42 2022
Recv from 127.0.0.1:4960, Data:$GPRMC,022044.00,A,3958.79129,N,11620.42809, Tue Apr 12 10:20:44 2022
Recv from 127.0.0.1:4960, Data:$GPRMC,022046.00,A,3958.79113,N,11620.42806, Tue Apr 12 10:20:46 2022
Recv from 127.0.0.1:4960, Data:$GPRMC,022048.00,A,3958.79096,N,11620.42802, Tue Apr 12 10:20:48 2022
Recv from 127.0.0.1:4960, Data:$GPRMC,022050.00,A,3958.79100,N,11620.42794, Tue Apr 12 10:20:50 2022
Recv from 127.0.0.1:4960, Data:$GPRMC,022051.00,A,3958.79107,N,11620.42783, Tue Apr 12 10:20:52 2022
Recv from 127.0.0.1:4960, Data:$GPRMC,022053.00,A,3958.79126,N,11620.42774, Tue Apr 12 10:20:54 2022
Recv from 127.0.0.1:4960, Data:$GPRMC,022055.00,A,3958.79155,N,11620.42757, Tue Apr 12 10:20:56 2022
Recv from 127.0.0.1:4960, Data:$GPRMC,022057.00,A,3958.79171,N,11620.42737, Tue Apr 12 10:20:58 2022
Recv from 127.0.0.1:4960, Data:$GPRMC,022059.00,A,3958.79178,N,11620.42719, Tue Apr 12 10:20:59 2022
Recv from 127.0.0.1:4960, Data:$GPRMC,022101.00,A,3958.79179,N,11620.42710, Tue Apr 12 10:21:01 2022
Recv from 127.0.0.1:4960, Data:$GPRMC,022103.00,A,3958.79185,N,11620.42688, Tue Apr 12 10:21:03 2022
Recv from 127.0.0.1:4960, Data:$GPRMC,022105.00,A,3958.79199,N,11620.42667, Tue Apr 12 10:21:05 2022
Recv from 127.0.0.1:4960, Data:$GPRMC,022107.00,A,3958.79205,N,11620.42651, Tue Apr 12 10:21:07 2022
Recv from 127.0.0.1:4960, Data:$GPRMC,022109.00,A,3958.79216,N,11620.42633, Tue Apr 12 10:21:09 2022
Recv from 127.0.0.1:4960, Data:$GPRMC,022111.00,A,3958.79229,N,11620.42616, Tue Apr 12 10:21:11 2022
Recv from 127.0.0.1:4960, Data:$GPRMC,022113.00,A,3958.79239,N,11620.42598, Tue Apr 12 10:21:13 2022
Recv from 127.0.0.1:4960, Data:$GPRMC,022114.00,A,3958.79244,N,11620.42588, Tue Apr 12 10:21:15 2022
Recv from 127.0.0.1:4960, Data:$GPRMC,022116.00,A,3958.79262,N,11620.42570, Tue Apr 12 10:21:17 2022
Recv from 127.0.0.1:4960, Data:$GPRMC,022118.00,A,3958.79288,N,11620.42555, Tue Apr 12 10:21:19 2022
Recv from 127.0.0.1:4960, Data:$GPRMC,022120.00,A,3958.79317,N,11620.42543, Tue Apr 12 10:21:20 2022
Recv from 127.0.0.1:4960, Data:$GPRMC,022122.00,A,3958.79342,N,11620.42532, Tue Apr 12 10:21:22 2022
Recv from 127.0.0.1:4960, Data:$GPRMC,022124.00,A,3958.79364,N,11620.42529, Tue Apr 12 10:21:24 2022
Recv from 127.0.0.1:4960, Data:$GPRMC,022126.00,A,3958.79389,N,11620.42525, Tue Apr 12 10:21:26 2022
Recv from 127.0.0.1:4960, Data:$GPRMC,022128.00,A,3958.79409,N,11620.42526, Tue Apr 12 10:21:28 2022
Recv from 127.0.0.1:4960, Data:$GPRMC,022130.00,A,3958.79418,N,11620.42523, Tue Apr 12 10:21:30 2022
Recv from 127.0.0.1:4960, Data:$GPRMC,022132.00,A,3958.79432,N,11620.42516, Tue Apr 12 10:21:32 2022
Recv from 127.0.0.1:4960, Data:$GPRMC,022134.00,A,3958.79441,N,11620.42519, Tue Apr 12 10:21:34 2022
Recv from 127.0.0.1:4960, Data:$GPRMC,022136.00,A,3958.79445,N,11620.42519, Tue Apr 12 10:21:36 2022
Recv from 127.0.0.1:4960, Data:$GPRMC,022137.00,A,3958.79448,N,11620.42519, Tue Apr 12 10:21:38 2022
Recv from 127.0.0.1:4960, Data:$GPRMC,022139.00,A,3958.79450,N,11620.42520, Tue Apr 12 10:21:40 2022
Recv from 127.0.0.1:4960, Data:$GPRMC,022141.00,A,3958.79445,N,11620.42519, Tue Apr 12 10:21:42 2022
Recv from 127.0.0.1:4960, Data:$GPRMC,022143.00,A,3958.79442,N,11620.42513, Tue Apr 12 10:21:43 2022
Recv from 127.0.0.1:4960, Data:$GPRMC,022145.00,A,3958.79428,N,11620.42508, Tue Apr 12 10:21:45 2022
Recv from 127.0.0.1:4960, Data:$GPRMC,022147.00,A,3958.79415,N,11620.42504, Tue Apr 12 10:21:47 2022
Recv from 127.0.0.1:4960, Data:$GPRMC,022149.00,A,3958.79411,N,11620.42497, Tue Apr 12 10:21:49 2022
Recv from 127.0.0.1:4960, Data:$GPRMC,022151.00,A,3958.79396,N,11620.42489, Tue Apr 12 10:21:51 2022
Recv from 127.0.0.1:4960, Data:$GPRMC,022153.00,A,3958.79387,N,11620.42480, Tue Apr 12 10:21:53 2022
Recv from 127.0.0.1:4960, Data:$GPRMC,022155.00,A,3958.79388,N,11620.42477, Tue Apr 12 10:21:55 2022
Recv from 127.0.0.1:4960, Data:$GPRMC,022157.00,A,3958.79382,N,11620.42475, Tue Apr 12 10:21:57 2022
Recv from 127.0.0.1:4960, Data:$GPRMC,022158.00,A,3958.79363,N,11620.42475, Tue Apr 12 10:21:59 2022
Recv from 127.0.0.1:4960, Data:$GPRMC,022200.00,A,3958.79357,N,11620.42475, Tue Apr 12 10:22:01 2022
Recv from 127.0.0.1:4960, Data:$GPRMC,022202.00,A,3958.79342,N,11620.42473, Tue Apr 12 10:22:03 2022
Recv from 127.0.0.1:4960, Data:$GPRMC,022204.00,A,3958.79346,N,11620.42472, Tue Apr 12 10:22:05 2022
Recv from 127.0.0.1:4960, Data:$GPRMC,022206.00,A,3958.79353,N,11620.42476, Tue Apr 12 10:22:06 2022
Recv from 127.0.0.1:4960, Data:$GPRMC,022208.00,A,3958.79373,N,11620.42478, Tue Apr 12 10:22:08 2022
Recv from 127.0.0.1:4960, Data:$GPRMC,022210.00,A,3958.79386,N,11620.42478, Tue Apr 12 10:22:10 2022
Recv from 127.0.0.1:4960, Data:$GPRMC,022212.00,A,3958.79407,N,11620.42475, Tue Apr 12 10:22:12 2022
Recv from 127.0.0.1:4960, Data:$GPRMC,022214.00,A,3958.79425,N,11620.42472, Tue Apr 12 10:22:14 2022
Recv from 127.0.0.1:4960, Data:$GPRMC,022216.00,A,3958.79445,N,11620.42470, Tue Apr 12 10:22:16 2022
Recv from 127.0.0.1:4960, Data:$GPRMC,022218.00,A,3958.79463,N,11620.42466, Tue Apr 12 10:22:18 2022
Recv from 127.0.0.1:4960, Data:$GPRMC,022220.00,A,3958.79480,N,11620.42461, Tue Apr 12 10:22:20 2022
Recv from 127.0.0.1:4960, Data:$GPRMC,022221.00,A,3958.79482,N,11620.42463, Tue Apr 12 10:22:22 2022
Recv from 127.0.0.1:4960, Data:$GPRMC,022223.00,A,3958.79492,N,11620.42462, Tue Apr 12 10:22:24 2022
Recv from 127.0.0.1:4960, Data:$GPRMC,022225.00,A,3958.79503,N,11620.42461, Tue Apr 12 10:22:26 2022
Recv from 127.0.0.1:4960, Data:$GPRMC,022227.00,A,3958.79503,N,11620.42469, Tue Apr 12 10:22:27 2022
Recv from 127.0.0.1:4960, Data:$GPRMC,022229.00,A,3958.79506,N,11620.42478, Tue Apr 12 10:22:29 2022
Recv from 127.0.0.1:4960, Data:$GPRMC,022231.00,A,3958.79518,N,11620.42482, Tue Apr 12 10:22:31 2022
Recv from 127.0.0.1:4960, Data:$GPRMC,022233.00,A,3958.79534,N,11620.42483, Tue Apr 12 10:22:33 2022
Recv from 127.0.0.1:4960, Data:$GPRMC,022235.00,A,3958.79557,N,11620.42486, Tue Apr 12 10:22:35 2022
Recv from 127.0.0.1:4960, Data:$GPRMC,022237.00,A,3958.79582,N,11620.42488, Tue Apr 12 10:22:37 2022
Recv from 127.0.0.1:4960, Data:$GPRMC,022239.00,A,3958.79610,N,11620.42486, Tue Apr 12 10:22:39 2022
Recv from 127.0.0.1:4960, Data:$GPRMC,022241.00,A,3958.79641,N,11620.42484, Tue Apr 12 10:22:41 2022
Recv from 127.0.0.1:4960, Data:$GPRMC,022243.00,A,3958.79670,N,11620.42482, Tue Apr 12 10:22:43 2022
Recv from 127.0.0.1:4960, Data:$GPRMC,022244.00,A,3958.79678,N,11620.42484, Tue Apr 12 10:22:45 2022
Recv from 127.0.0.1:4960, Data:$GPRMC,022246.00,A,3958.79687,N,11620.42489, Tue Apr 12 10:22:47 2022
Recv from 127.0.0.1:4960, Data:$GPRMC,022248.00,A,3958.79679,N,11620.42494, Tue Apr 12 10:22:49 2022
Recv from 127.0.0.1:4960, Data:$GPRMC,022250.00,A,3958.79665,N,11620.42497, Tue Apr 12 10:22:50 2022
Recv from 127.0.0.1:4960, Data:$GPRMC,022252.00,A,3958.79649,N,11620.42499, Tue Apr 12 10:22:52 2022
Recv from 127.0.0.1:4960, Data:$GPRMC,022254.00,A,3958.79624,N,11620.42501, Tue Apr 12 10:22:54 2022
Recv from 127.0.0.1:4960, Data:$GPRMC,022256.00,A,3958.79597,N,11620.42503, Tue Apr 12 10:22:56 2022
Recv from 127.0.0.1:4960, Data:$GPRMC,022258.00,A,3958.79564,N,11620.42508, Tue Apr 12 10:22:58 2022
Recv from 127.0.0.1:4960, Data:$GPRMC,022300.00,A,3958.79528,N,11620.42510, Tue Apr 12 10:23:00 2022
Recv from 127.0.0.1:4960, Data:$GPRMC,022302.00,A,3958.79497,N,11620.42512, Tue Apr 12 10:23:02 2022
Recv from 127.0.0.1:4960, Data:$GPRMC,022304.00,A,3958.79466,N,11620.42518, Tue Apr 12 10:23:04 2022
Recv from 127.0.0.1:4960, Data:$GPRMC,022306.00,A,3958.79437,N,11620.42526, Tue Apr 12 10:23:06 2022
Recv from 127.0.0.1:4960, Data:$GPRMC,022307.00,A,3958.79430,N,11620.42528, Tue Apr 12 10:23:08 2022
Recv from 127.0.0.1:4960, Data:$GPRMC,022309.00,A,3958.79421,N,11620.42533, Tue Apr 12 10:23:10 2022
Recv from 127.0.0.1:4960, Data:$GPRMC,022311.00,A,3958.79416,N,11620.42532, Tue Apr 12 10:23:12 2022
Recv from 127.0.0.1:4960, Data:$GPRMC,022313.00,A,3958.79408,N,11620.42530, Tue Apr 12 10:23:13 2022
Recv from 127.0.0.1:5086, Data:$GPRMC,022354.00,A,3958.79598,N,11620.42442, Tue Apr 12 10:23:54 2022
Recv from 127.0.0.1:5086, Data:$GPRMC,022356.00,A,3958.79599,N,11620.42445, Tue Apr 12 10:23:56 2022
Recv from 127.0.0.1:5086, Data:$GPRMC,022358.00,A,3958.79592,N,11620.42447, Tue Apr 12 10:23:58 2022
Recv from 127.0.0.1:5086, Data:$GPRMC,022400.00,A,3958.79592,N,11620.42450, Tue Apr 12 10:24:00 2022
Recv from 127.0.0.1:5086, Data:$GPRMC,022402.00,A,3958.79590,N,11620.42451, Tue Apr 12 10:24:02 2022
Recv from 127.0.0.1:5086, Data:$GPRMC,022404.00,A,3958.79580,N,11620.42449, Tue Apr 12 10:24:04 2022
Recv from 127.0.0.1:5086, Data:$GPRMC,022405.00,A,3958.79571,N,11620.42445, Tue Apr 12 10:24:06 2022
Recv from 127.0.0.1:5086, Data:$GPRMC,022407.00,A,3958.79562,N,11620.42449, Tue Apr 12 10:24:08 2022
Recv from 127.0.0.1:5086, Data:$GPRMC,022409.00,A,3958.79538,N,11620.42456, Tue Apr 12 10:24:10 2022
Recv from 127.0.0.1:5086, Data:$GPRMC,022411.00,A,3958.79502,N,11620.42466, Tue Apr 12 10:24:12 2022
Recv from 127.0.0.1:5086, Data:$GPRMC,022413.00,A,3958.79482,N,11620.42473, Tue Apr 12 10:24:13 2022
Recv from 127.0.0.1:5086, Data:$GPRMC,022415.00,A,3958.79462,N,11620.42484, Tue Apr 12 10:24:15 2022
Recv from 127.0.0.1:5086, Data:$GPRMC,022417.00,A,3958.79447,N,11620.42496, Tue Apr 12 10:24:17 2022
Recv from 127.0.0.1:5086, Data:$GPRMC,022419.00,A,3958.79441,N,11620.42505, Tue Apr 12 10:24:19 2022
Recv from 127.0.0.1:5086, Data:$GPRMC,022421.00,A,3958.79432,N,11620.42513, Tue Apr 12 10:24:21 2022
Recv from 127.0.0.1:5086, Data:$GPRMC,022423.00,A,3958.79427,N,11620.42520, Tue Apr 12 10:24:23 2022
Recv from 127.0.0.1:5086, Data:$GPRMC,022425.00,A,3958.79415,N,11620.42530, Tue Apr 12 10:24:25 2022
Recv from 127.0.0.1:5086, Data:$GPRMC,022427.00,A,3958.79396,N,11620.42540, Tue Apr 12 10:24:27 2022
Recv from 127.0.0.1:5086, Data:$GPRMC,022428.00,A,3958.79382,N,11620.42552, Tue Apr 12 10:24:29 2022
Recv from 127.0.0.1:5086, Data:$GPRMC,022430.00,A,3958.79349,N,11620.42553, Tue Apr 12 10:24:31 2022
Recv from 127.0.0.1:5086, Data:$GPRMC,022432.00,A,3958.79304,N,11620.42564, Tue Apr 12 10:24:33 2022
Recv from 127.0.0.1:5086, Data:$GPRMC,022434.00,A,3958.79289,N,11620.42545, Tue Apr 12 10:24:34 2022
Recv from 127.0.0.1:5086, Data:$GPRMC,022436.00,A,3958.79247,N,11620.42524, Tue Apr 12 10:24:36 2022
Recv from 127.0.0.1:5086, Data:$GPRMC,022438.00,A,3958.79272,N,11620.42553, Tue Apr 12 10:24:38 2022
Recv from 127.0.0.1:5086, Data:$GPRMC,022440.00,A,3958.79384,N,11620.42528, Tue Apr 12 10:24:40 2022
Recv from 127.0.0.1:5086, Data:$GPRMC,022442.00,A,3958.79449,N,11620.42414, Tue Apr 12 10:24:42 2022
Recv from 127.0.0.1:5086, Data:$GPRMC,022444.00,A,3958.79405,N,11620.42275, Tue Apr 12 10:24:44 2022
Recv from 127.0.0.1:5086, Data:$GPRMC,022446.00,A,3958.79359,N,11620.42098, Tue Apr 12 10:24:46 2022
Recv from 127.0.0.1:5086, Data:$GPRMC,022448.00,A,3958.79333,N,11620.41973, Tue Apr 12 10:24:48 2022
Recv from 127.0.0.1:5086, Data:$GPRMC,022450.00,A,3958.79386,N,11620.41720, Tue Apr 12 10:24:50 2022
Recv from 127.0.0.1:5086, Data:$GPRMC,022451.00,A,3958.79384,N,11620.41607, Tue Apr 12 10:24:52 2022
Recv from 127.0.0.1:5086, Data:$GPRMC,022453.00,A,3958.79386,N,11620.41423, Tue Apr 12 10:24:54 2022
Recv from 127.0.0.1:5086, Data:$GPRMC,022455.00,A,3958.79400,N,11620.41300, Tue Apr 12 10:24:56 2022
Recv from 127.0.0.1:5086, Data:$GPRMC,022457.00,A,3958.79440,N,11620.41215, Tue Apr 12 10:24:57 2022
Recv from 127.0.0.1:5086, Data:$GPRMC,022459.00,A,3958.79529,N,11620.41089, Tue Apr 12 10:24:59 2022
Recv from 127.0.0.1:5086, Data:$GPRMC,022501.00,A,3958.79591,N,11620.40943, Tue Apr 12 10:25:01 2022
Recv from 127.0.0.1:5086, Data:$GPRMC,022503.00,A,3958.79646,N,11620.40868, Tue Apr 12 10:25:03 2022
Recv from 127.0.0.1:5086, Data:$GPRMC,022505.00,A,3958.79618,N,11620.40830, Tue Apr 12 10:25:05 2022
Recv from 127.0.0.1:5086, Data:$GPRMC,022507.00,A,3958.79689,N,11620.40769, Tue Apr 12 10:25:07 2022
Recv from 127.0.0.1:5086, Data:$GPRMC,022509.00,A,3958.79723,N,11620.40610, Tue Apr 12 10:25:09 2022
Recv from 127.0.0.1:5086, Data:$GPRMC,022511.00,A,3958.79785,N,11620.40455, Tue Apr 12 10:25:11 2022
Recv from 127.0.0.1:5086, Data:$GPRMC,022513.00,A,3958.79839,N,11620.40365, Tue Apr 12 10:25:13 2022
Recv from 127.0.0.1:5086, Data:$GPRMC,022514.00,A,3958.79852,N,11620.40311, Tue Apr 12 10:25:15 2022
Recv from 127.0.0.1:5086, Data:$GPRMC,022516.00,A,3958.79880,N,11620.40174, Tue Apr 12 10:25:17 2022
Recv from 127.0.0.1:5086, Data:$GPRMC,022518.00,A,3958.79919,N,11620.40050, Tue Apr 12 10:25:19 2022
Recv from 127.0.0.1:5086, Data:$GPRMC,022520.00,A,3958.79945,N,11620.39924, Tue Apr 12 10:25:20 2022
Recv from 127.0.0.1:5086, Data:$GPRMC,022522.00,A,3958.80000,N,11620.39846, Tue Apr 12 10:25:22 2022
Recv from 127.0.0.1:5086, Data:$GPRMC,022524.00,A,3958.79997,N,11620.39757, Tue Apr 12 10:25:24 2022
Recv from 127.0.0.1:5086, Data:$GPRMC,022526.00,A,3958.79994,N,11620.39703, Tue Apr 12 10:25:26 2022
Recv from 127.0.0.1:5086, Data:$GPRMC,022528.00,A,3958.79994,N,11620.39586, Tue Apr 12 10:25:28 2022
Recv from 127.0.0.1:5086, Data:$GPRMC,022530.00,A,3958.80020,N,11620.39458, Tue Apr 12 10:25:30 2022
Recv from 127.0.0.1:5086, Data:$GPRMC,022532.00,A,3958.80049,N,11620.39313, Tue Apr 12 10:25:32 2022
Recv from 127.0.0.1:5086, Data:$GPRMC,022534.00,A,3958.80032,N,11620.39259, Tue Apr 12 10:25:34 2022
Recv from 127.0.0.1:5086, Data:$GPRMC,022535.00,A,3958.80045,N,11620.39179, Tue Apr 12 10:25:36 2022
Recv from 127.0.0.1:5086, Data:$GPRMC,022537.00,A,3958.80056,N,11620.39157, Tue Apr 12 10:25:38 2022
Recv from 127.0.0.1:5086, Data:$GPRMC,022539.00,A,3958.80100,N,11620.39120, Tue Apr 12 10:25:40 2022
Recv from 127.0.0.1:5086, Data:$GPRMC,022541.00,A,3958.80122,N,11620.39031, Tue Apr 12 10:25:42 2022
Recv from 127.0.0.1:5086, Data:$GPRMC,022543.00,A,3958.80147,N,11620.38993, Tue Apr 12 10:25:43 2022
Recv from 127.0.0.1:5086, Data:$GPRMC,022545.00,A,3958.80169,N,11620.38980, Tue Apr 12 10:25:45 2022
Recv from 127.0.0.1:5086, Data:$GPRMC,022547.00,A,3958.80144,N,11620.38996, Tue Apr 12 10:25:47 2022
Recv from 127.0.0.1:5086, Data:$GPRMC,022549.00,A,3958.80081,N,11620.38980, Tue Apr 12 10:25:49 2022
Recv from 127.0.0.1:5086, Data:$GPRMC,022551.00,A,3958.80038,N,11620.38902, Tue Apr 12 10:25:51 2022
Recv from 127.0.0.1:5086, Data:$GPRMC,022553.00,A,3958.80017,N,11620.38776, Tue Apr 12 10:25:53 2022
Recv from 127.0.0.1:5086, Data:$GPRMC,022555.00,A,3958.79942,N,11620.38674, Tue Apr 12 10:25:55 2022
Recv from 127.0.0.1:5086, Data:$GPRMC,022557.00,A,3958.79791,N,11620.38563, Tue Apr 12 10:25:57 2022
Recv from 127.0.0.1:5086, Data:$GPRMC,022558.00,A,3958.79715,N,11620.38424, Tue Apr 12 10:25:59 2022
Recv from 127.0.0.1:5086, Data:$GPRMC,022600.00,A,3958.79675,N,11620.38364, Tue Apr 12 10:26:01 2022
Recv from 127.0.0.1:5086, Data:$GPRMC,022602.00,A,3958.79699,N,11620.38276, Tue Apr 12 10:26:03 2022
Recv from 127.0.0.1:5086, Data:$GPRMC,022604.00,A,3958.79660,N,11620.38224, Tue Apr 12 10:26:04 2022
Recv from 127.0.0.1:5086, Data:$GPRMC,022606.00,A,3958.79600,N,11620.38177, Tue Apr 12 10:26:06 2022
Recv from 127.0.0.1:5086, Data:$GPRMC,022608.00,A,3958.79542,N,11620.38125, Tue Apr 12 10:26:08 2022
Recv from 127.0.0.1:5086, Data:$GPRMC,022610.00,A,3958.79498,N,11620.38103, Tue Apr 12 10:26:10 2022
Recv from 127.0.0.1:5086, Data:$GPRMC,022612.00,A,3958.79501,N,11620.38036, Tue Apr 12 10:26:12 2022
Recv from 127.0.0.1:5086, Data:$GPRMC,022614.00,A,3958.79508,N,11620.37974, Tue Apr 12 10:26:14 2022
Recv from 127.0.0.1:5086, Data:$GPRMC,022616.00,A,3958.79521,N,11620.37912, Tue Apr 12 10:26:16 2022
Recv from 127.0.0.1:5086, Data:$GPRMC,022618.00,A,3958.79501,N,11620.37759, Tue Apr 12 10:26:18 2022
Recv from 127.0.0.1:5086, Data:$GPRMC,022620.00,A,3958.79537,N,11620.37667, Tue Apr 12 10:26:20 2022
Recv from 127.0.0.1:5086, Data:$GPRMC,022621.00,A,3958.79566,N,11620.37632, Tue Apr 12 10:26:22 2022
Recv from 127.0.0.1:5086, Data:$GPRMC,022623.00,A,3958.79645,N,11620.37538, Tue Apr 12 10:26:24 2022
Recv from 127.0.0.1:5086, Data:$GPRMC,022625.00,A,3958.79660,N,11620.37512, Tue Apr 12 10:26:26 2022
Recv from 127.0.0.1:5086, Data:$GPRMC,022627.00,A,3958.79666,N,11620.37503, Tue Apr 12 10:26:27 2022
Recv from 127.0.0.1:5086, Data:$GPRMC,022629.00,A,3958.79674,N,11620.37495, Tue Apr 12 10:26:29 2022
Recv from 127.0.0.1:5086, Data:$GPRMC,022631.00,A,3958.79650,N,11620.37554, Tue Apr 12 10:26:31 2022
Recv from 127.0.0.1:5086, Data:$GPRMC,022633.00,A,3958.79594,N,11620.37654, Tue Apr 12 10:26:33 2022
Recv from 127.0.0.1:5086, Data:$GPRMC,022635.00,A,3958.79556,N,11620.37690, Tue Apr 12 10:26:35 2022
Recv from 127.0.0.1:5086, Data:$GPRMC,022637.00,A,3958.79416,N,11620.37857, Tue Apr 12 10:26:37 2022
Recv from 127.0.0.1:5086, Data:$GPRMC,022639.00,A,3958.79306,N,11620.38001, Tue Apr 12 10:26:39 2022
Recv from 127.0.0.1:5086, Data:$GPRMC,022641.00,A,3958.79256,N,11620.38063, Tue Apr 12 10:26:41 2022
Recv from 127.0.0.1:5086, Data:$GPRMC,022643.00,A,3958.79210,N,11620.38127, Tue Apr 12 10:26:43 2022
Recv from 127.0.0.1:5086, Data:$GPRMC,022644.00,A,3958.79184,N,11620.38114, Tue Apr 12 10:26:45 2022
Recv from 127.0.0.1:5086, Data:$GPRMC,022646.00,A,3958.79135,N,11620.38115, Tue Apr 12 10:26:47 2022
Recv from 127.0.0.1:5086, Data:$GPRMC,022648.00,A,3958.79115,N,11620.38125, Tue Apr 12 10:26:49 2022
Recv from 127.0.0.1:5086, Data:$GPRMC,022650.00,A,3958.79086,N,11620.38054, Tue Apr 12 10:26:50 2022
Recv from 127.0.0.1:5086, Data:$GPRMC,022652.00,A,3958.79054,N,11620.38010, Tue Apr 12 10:26:52 2022
Recv from 127.0.0.1:5086, Data:$GPRMC,022654.00,A,3958.79020,N,11620.37947, Tue Apr 12 10:26:54 2022
Recv from 127.0.0.1:5086, Data:$GPRMC,022656.00,A,3958.79020,N,11620.37876, Tue Apr 12 10:26:56 2022
Recv from 127.0.0.1:5086, Data:$GPRMC,022658.00,A,3958.79001,N,11620.37815, Tue Apr 12 10:26:58 2022
Recv from 127.0.0.1:5086, Data:$GPRMC,022700.00,A,3958.79001,N,11620.37747, Tue Apr 12 10:27:00 2022
Recv from 127.0.0.1:5086, Data:$GPRMC,022702.00,A,3958.79000,N,11620.37657, Tue Apr 12 10:27:02 2022
Recv from 127.0.0.1:5086, Data:$GPRMC,022704.00,A,3958.78949,N,11620.37559, Tue Apr 12 10:27:04 2022
Recv from 127.0.0.1:5086, Data:$GPRMC,022706.00,A,3958.78925,N,11620.37488, Tue Apr 12 10:27:06 2022
Recv from 127.0.0.1:5086, Data:$GPRMC,022707.00,A,3958.78929,N,11620.37479, Tue Apr 12 10:27:08 2022
Recv from 127.0.0.1:5086, Data:$GPRMC,022709.00,A,3958.78945,N,11620.37459, Tue Apr 12 10:27:10 2022
Recv from 127.0.0.1:5086, Data:$GPRMC,022711.00,A,3958.78931,N,11620.37387, Tue Apr 12 10:27:12 2022
Recv from 127.0.0.1:5086, Data:$GPRMC,022713.00,A,3958.78947,N,11620.37316, Tue Apr 12 10:27:13 2022
Recv from 127.0.0.1:5086, Data:$GPRMC,022715.00,A,3958.78946,N,11620.37210, Tue Apr 12 10:27:15 2022
Recv from 127.0.0.1:5086, Data:$GPRMC,022717.00,A,3958.78943,N,11620.37172, Tue Apr 12 10:27:17 2022
Recv from 127.0.0.1:5086, Data:$GPRMC,022719.00,A,3958.78949,N,11620.37108, Tue Apr 12 10:27:19 2022
Recv from 127.0.0.1:5086, Data:$GPRMC,022721.00,A,3958.78958,N,11620.37054, Tue Apr 12 10:27:21 2022
Recv from 127.0.0.1:5086, Data:$GPRMC,022723.00,A,3958.78954,N,11620.36933, Tue Apr 12 10:27:23 2022
Recv from 127.0.0.1:5086, Data:$GPRMC,022725.00,A,3958.78946,N,11620.36802, Tue Apr 12 10:27:25 2022
Recv from 127.0.0.1:5086, Data:$GPRMC,022727.00,A,3958.78946,N,11620.36702, Tue Apr 12 10:27:27 2022
Recv from 127.0.0.1:5086, Data:$GPRMC,022728.00,A,3958.78938,N,11620.36606, Tue Apr 12 10:27:29 2022
Recv from 127.0.0.1:5086, Data:$GPRMC,022730.00,A,3958.78913,N,11620.36569, Tue Apr 12 10:27:31 2022
Recv from 127.0.0.1:5086, Data:$GPRMC,022732.00,A,3958.78916,N,11620.36476, Tue Apr 12 10:27:33 2022
Recv from 127.0.0.1:5086, Data:$GPRMC,022734.00,A,3958.78887,N,11620.36372, Tue Apr 12 10:27:35 2022
Recv from 127.0.0.1:5086, Data:$GPRMC,022736.00,A,3958.78904,N,11620.36241, Tue Apr 12 10:27:36 2022
Recv from 127.0.0.1:5086, Data:$GPRMC,022738.00,A,3958.78890,N,11620.36130, Tue Apr 12 10:27:38 2022
Recv from 127.0.0.1:5086, Data:$GPRMC,022740.00,A,3958.78873,N,11620.35994, Tue Apr 12 10:27:40 2022
Recv from 127.0.0.1:5257, Data:$GPRMC,022821.00,A,3958.78903,N,11620.35163, Tue Apr 12 10:28:21 2022
Recv from 127.0.0.1:5257, Data:$GPRMC,022823.00,A,3958.78921,N,11620.35180, Tue Apr 12 10:28:23 2022
Recv from 127.0.0.1:5295, Data:$GPRMC,022916.00,A,3958.79143,N,11620.34443, Tue Apr 12 10:29:16 2022
Recv from 127.0.0.1:5295, Data:$GPRMC,022918.00,A,3958.79140,N,11620.34416, Tue Apr 12 10:29:18 2022
Recv from 127.0.0.1:5295, Data:$GPRMC,022920.00,A,3958.79130,N,11620.34386, Tue Apr 12 10:29:20 2022
Recv from 127.0.0.1:5295, Data:$GPRMC,022921.00,A,3958.79126,N,11620.34379, Tue Apr 12 10:29:22 2022
Recv from 127.0.0.1:5295, Data:$GPRMC,022923.00,A,3958.79118,N,11620.34347, Tue Apr 12 10:29:24 2022
Recv from 127.0.0.1:5295, Data:$GPRMC,022925.00,A,3958.79129,N,11620.34329, Tue Apr 12 10:29:26 2022
Recv from 127.0.0.1:5295, Data:$GPRMC,022927.00,A,3958.79135,N,11620.34315, Tue Apr 12 10:29:27 2022
Recv from 127.0.0.1:5295, Data:$GPRMC,022929.00,A,3958.79142,N,11620.34287, Tue Apr 12 10:29:29 2022
Recv from 127.0.0.1:5295, Data:$GPRMC,022931.00,A,3958.79162,N,11620.34266, Tue Apr 12 10:29:31 2022
Recv from 127.0.0.1:5295, Data:$GPRMC,022933.00,A,3958.79189,N,11620.34244, Tue Apr 12 10:29:33 2022
Recv from 127.0.0.1:5295, Data:$GPRMC,022935.00,A,3958.79215,N,11620.34205, Tue Apr 12 10:29:35 2022
Recv from 127.0.0.1:5295, Data:$GPRMC,022937.00,A,3958.79230,N,11620.34158, Tue Apr 12 10:29:37 2022
Recv from 127.0.0.1:5295, Data:$GPRMC,022939.00,A,3958.79249,N,11620.34111, Tue Apr 12 10:29:39 2022
Recv from 127.0.0.1:5295, Data:$GPRMC,022941.00,A,3958.79279,N,11620.34071, Tue Apr 12 10:29:41 2022
Recv from 127.0.0.1:5295, Data:$GPRMC,022943.00,A,3958.79298,N,11620.34046, Tue Apr 12 10:29:43 2022
Recv from 127.0.0.1:5295, Data:$GPRMC,022944.00,A,3958.79314,N,11620.34041, Tue Apr 12 10:29:45 2022
Recv from 127.0.0.1:5295, Data:$GPRMC,022946.00,A,3958.79360,N,11620.34053, Tue Apr 12 10:29:47 2022
Recv from 127.0.0.1:5295, Data:$GPRMC,022948.00,A,3958.79381,N,11620.34062, Tue Apr 12 10:29:49 2022
Recv from 127.0.0.1:5295, Data:$GPRMC,022950.00,A,3958.79380,N,11620.34064, Tue Apr 12 10:29:50 2022
Recv from 127.0.0.1:5295, Data:$GPRMC,022952.00,A,3958.79383,N,11620.34068, Tue Apr 12 10:29:52 2022
Recv from 127.0.0.1:5295, Data:$GPRMC,022954.00,A,3958.79382,N,11620.34079, Tue Apr 12 10:29:54 2022
Recv from 127.0.0.1:5295, Data:$GPRMC,022956.00,A,3958.79398,N,11620.34103, Tue Apr 12 10:29:56 2022
Recv from 127.0.0.1:5295, Data:$GPRMC,022958.00,A,3958.79406,N,11620.34128, Tue Apr 12 10:29:58 2022
Recv from 127.0.0.1:5295, Data:$GPRMC,023000.00,A,3958.79408,N,11620.34160, Tue Apr 12 10:30:00 2022
Recv from 127.0.0.1:5295, Data:$GPRMC,023002.00,A,3958.79403,N,11620.34200, Tue Apr 12 10:30:02 2022
Recv from 127.0.0.1:5295, Data:$GPRMC,023004.00,A,3958.79393,N,11620.34234, Tue Apr 12 10:30:04 2022
Recv from 127.0.0.1:5295, Data:$GPRMC,023006.00,A,3958.79368,N,11620.34266, Tue Apr 12 10:30:06 2022
Recv from 127.0.0.1:5295, Data:$GPRMC,023007.00,A,3958.79351,N,11620.34282, Tue Apr 12 10:30:08 2022
Recv from 127.0.0.1:5295, Data:$GPRMC,023009.00,A,3958.79323,N,11620.34316, Tue Apr 12 10:30:10 2022
Recv from 127.0.0.1:5295, Data:$GPRMC,023011.00,A,3958.79302,N,11620.34365, Tue Apr 12 10:30:12 2022
Recv from 127.0.0.1:5295, Data:$GPRMC,023013.00,A,3958.79278,N,11620.34412, Tue Apr 12 10:30:13 2022
Recv from 127.0.0.1:5295, Data:$GPRMC,023015.00,A,3958.79264,N,11620.34455, Tue Apr 12 10:30:15 2022
Recv from 127.0.0.1:5295, Data:$GPRMC,023017.00,A,3958.79252,N,11620.34494, Tue Apr 12 10:30:17 2022
Recv from 127.0.0.1:5295, Data:$GPRMC,023019.00,A,3958.79237,N,11620.34533, Tue Apr 12 10:30:19 2022
Recv from 127.0.0.1:5295, Data:$GPRMC,023021.00,A,3958.79254,N,11620.34565, Tue Apr 12 10:30:21 2022
Recv from 127.0.0.1:5295, Data:$GPRMC,023023.00,A,3958.79270,N,11620.34603, Tue Apr 12 10:30:23 2022
Recv from 127.0.0.1:5295, Data:$GPRMC,023025.00,A,3958.79280,N,11620.34682, Tue Apr 12 10:30:25 2022
Recv from 127.0.0.1:5295, Data:$GPRMC,023027.00,A,3958.79273,N,11620.34739, Tue Apr 12 10:30:27 2022
Recv from 127.0.0.1:5295, Data:$GPRMC,023028.00,A,3958.79324,N,11620.34858, Tue Apr 12 10:30:29 2022
Recv from 127.0.0.1:5295, Data:$GPRMC,023030.00,A,3958.79352,N,11620.34976, Tue Apr 12 10:30:31 2022
Recv from 127.0.0.1:5295, Data:$GPRMC,023032.00,A,3958.79564,N,11620.35081, Tue Apr 12 10:30:33 2022
Recv from 127.0.0.1:5295, Data:$GPRMC,023034.00,A,3958.79619,N,11620.35213, Tue Apr 12 10:30:35 2022
Recv from 127.0.0.1:5295, Data:$GPRMC,023036.00,A,3958.79750,N,11620.35189, Tue Apr 12 10:30:36 2022
Recv from 127.0.0.1:5295, Data:$GPRMC,023038.00,A,3958.80234,N,11620.34847, Tue Apr 12 10:30:38 2022
Recv from 127.0.0.1:5295, Data:$GPRMC,023040.00,A,3958.80256,N,11620.34950, Tue Apr 12 10:30:40 2022
Recv from 127.0.0.1:5295, Data:$GPRMC,023042.00,A,3958.80183,N,11620.34937, Tue Apr 12 10:30:42 2022
Recv from 127.0.0.1:5295, Data:$GPRMC,023044.00,A,3958.79966,N,11620.35103, Tue Apr 12 10:30:44 2022
Recv from 127.0.0.1:5295, Data:$GPRMC,023046.00,A,3958.79773,N,11620.35237, Tue Apr 12 10:30:46 2022
Recv from 127.0.0.1:5295, Data:$GPRMC,023048.00,A,3958.79740,N,11620.35452, Tue Apr 12 10:30:48 2022
Recv from 127.0.0.1:5295, Data:$GPRMC,023050.00,A,3958.79812,N,11620.35572, Tue Apr 12 10:30:50 2022
Recv from 127.0.0.1:5295, Data:$GPRMC,023051.00,A,3958.79730,N,11620.35862, Tue Apr 12 10:30:52 2022
Recv from 127.0.0.1:5295, Data:$GPRMC,023053.00,A,3958.79600,N,11620.36097, Tue Apr 12 10:30:54 2022
Recv from 127.0.0.1:5295, Data:$GPRMC,023055.00,A,3958.79671,N,11620.36356, Tue Apr 12 10:30:56 2022
Recv from 127.0.0.1:5295, Data:$GPRMC,023057.00,A,3958.79693,N,11620.36668, Tue Apr 12 10:30:57 2022
Recv from 127.0.0.1:5295, Data:$GPRMC,023059.00,A,3958.79737,N,11620.37065, Tue Apr 12 10:30:59 2022
Recv from 127.0.0.1:5295, Data:$GPRMC,023101.00,A,3958.79889,N,11620.37295, Tue Apr 12 10:31:01 2022
Recv from 127.0.0.1:5295, Data:$GPRMC,023103.00,A,3958.80012,N,11620.37583, Tue Apr 12 10:31:03 2022
Recv from 127.0.0.1:5295, Data:$GPRMC,023105.00,A,3958.79845,N,11620.38115, Tue Apr 12 10:31:05 2022
Recv from 127.0.0.1:5295, Data:$GPRMC,023107.00,A,3958.79677,N,11620.38612, Tue Apr 12 10:31:07 2022
Recv from 127.0.0.1:5295, Data:$GPRMC,023109.00,A,3958.79621,N,11620.39048, Tue Apr 12 10:31:09 2022
Recv from 127.0.0.1:5295, Data:$GPRMC,023111.00,A,3958.79582,N,11620.39333, Tue Apr 12 10:31:11 2022
Recv from 127.0.0.1:5295, Data:$GPRMC,023113.00,A,3958.79622,N,11620.39604, Tue Apr 12 10:31:13 2022
Recv from 127.0.0.1:5295, Data:$GPRMC,023114.00,A,3958.79647,N,11620.39769, Tue Apr 12 10:31:15 2022
Recv from 127.0.0.1:5295, Data:$GPRMC,023116.00,A,3958.79678,N,11620.40046, Tue Apr 12 10:31:17 2022
Recv from 127.0.0.1:5295, Data:$GPRMC,023118.00,A,3958.79763,N,11620.40322, Tue Apr 12 10:31:19 2022
Recv from 127.0.0.1:5295, Data:$GPRMC,023120.00,A,3958.79801,N,11620.40522, Tue Apr 12 10:31:20 2022
Recv from 127.0.0.1:5295, Data:$GPRMC,023122.00,A,3958.79850,N,11620.40731, Tue Apr 12 10:31:22 2022
Recv from 127.0.0.1:5295, Data:$GPRMC,023124.00,A,3958.79884,N,11620.40930, Tue Apr 12 10:31:24 2022
Recv from 127.0.0.1:5295, Data:$GPRMC,023126.00,A,3958.79936,N,11620.41183, Tue Apr 12 10:31:26 2022
Recv from 127.0.0.1:5295, Data:$GPRMC,023128.00,A,3958.79907,N,11620.41444, Tue Apr 12 10:31:28 2022
Recv from 127.0.0.1:5295, Data:$GPRMC,023130.00,A,3958.79905,N,11620.41771, Tue Apr 12 10:31:30 2022
Recv from 127.0.0.1:5295, Data:$GPRMC,023132.00,A,3958.79893,N,11620.42014, Tue Apr 12 10:31:32 2022
Recv from 127.0.0.1:5295, Data:$GPRMC,023134.00,A,3958.79881,N,11620.42292, Tue Apr 12 10:31:34 2022
Recv from 127.0.0.1:5295, Data:$GPRMC,023136.00,A,3958.79859,N,11620.42559, Tue Apr 12 10:31:36 2022
Recv from 127.0.0.1:5295, Data:$GPRMC,023137.00,A,3958.79824,N,11620.42590, Tue Apr 12 10:31:38 2022
Recv from 127.0.0.1:5295, Data:$GPRMC,023139.00,A,3958.79822,N,11620.42849, Tue Apr 12 10:31:40 2022
Recv from 127.0.0.1:5295, Data:$GPRMC,023141.00,A,3958.79836,N,11620.43098, Tue Apr 12 10:31:42 2022
Recv from 127.0.0.1:5295, Data:$GPRMC,023143.00,A,3958.79825,N,11620.43314, Tue Apr 12 10:31:43 2022
Recv from 127.0.0.1:5295, Data:$GPRMC,023145.00,A,3958.79797,N,11620.43517, Tue Apr 12 10:31:45 2022
Recv from 127.0.0.1:5295, Data:$GPRMC,023147.00,A,3958.79768,N,11620.43768, Tue Apr 12 10:31:47 2022
Recv from 127.0.0.1:5295, Data:$GPRMC,023149.00,A,3958.79727,N,11620.44028, Tue Apr 12 10:31:49 2022
Recv from 127.0.0.1:5295, Data:$GPRMC,023151.00,A,3958.79717,N,11620.44259, Tue Apr 12 10:31:51 2022
Recv from 127.0.0.1:5295, Data:$GPRMC,023153.00,A,3958.79711,N,11620.44538, Tue Apr 12 10:31:53 2022
Recv from 127.0.0.1:5295, Data:$GPRMC,023155.00,A,3958.79697,N,11620.44844, Tue Apr 12 10:31:55 2022
Recv from 127.0.0.1:5295, Data:$GPRMC,023157.00,A,3958.79692,N,11620.45032, Tue Apr 12 10:31:57 2022
Recv from 127.0.0.1:5295, Data:$GPRMC,023159.00,A,3958.79643,N,11620.45279, Tue Apr 12 10:31:59 2022
Recv from 127.0.0.1:5295, Data:$GPRMC,023200.00,A,3958.79633,N,11620.45388, Tue Apr 12 10:32:01 2022
Recv from 127.0.0.1:5295, Data:$GPRMC,023202.00,A,3958.79640,N,11620.45646, Tue Apr 12 10:32:03 2022
Recv from 127.0.0.1:5295, Data:$GPRMC,023204.00,A,3958.79596,N,11620.45983, Tue Apr 12 10:32:05 2022
Recv from 127.0.0.1:5295, Data:$GPRMC,023206.00,A,3958.79618,N,11620.46228, Tue Apr 12 10:32:06 2022
Recv from 127.0.0.1:5295, Data:$GPRMC,023208.00,A,3958.79666,N,11620.46446, Tue Apr 12 10:32:08 2022
Recv from 127.0.0.1:5295, Data:$GPRMC,023210.00,A,3958.79698,N,11620.46651, Tue Apr 12 10:32:10 2022
Recv from 127.0.0.1:5295, Data:$GPRMC,023212.00,A,3958.79699,N,11620.46913, Tue Apr 12 10:32:12 2022
Recv from 127.0.0.1:5295, Data:$GPRMC,023214.00,A,3958.79724,N,11620.47158, Tue Apr 12 10:32:14 2022
Recv from 127.0.0.1:5295, Data:$GPRMC,023216.00,A,3958.79717,N,11620.47433, Tue Apr 12 10:32:16 2022
Recv from 127.0.0.1:5421, Data:$GPRMC,023257.00,A,3958.79247,N,11620.51782, Tue Apr 12 10:32:57 2022
Recv from 127.0.0.1:5421, Data:$GPRMC,023259.00,A,3958.79315,N,11620.51983, Tue Apr 12 10:32:59 2022
Recv from 127.0.0.1:5421, Data:$GPRMC,023300.00,A,3958.79505,N,11620.51973, Tue Apr 12 10:33:01 2022
Recv from 127.0.0.1:5421, Data:$GPRMC,023302.00,A,3958.81244,N,11620.49625, Tue Apr 12 10:33:03 2022
Recv from 127.0.0.1:5421, Data:$GPRMC,023303.00,A,3958.82501,N,11620.47185, Tue Apr 12 10:33:05 2022
Recv from 127.0.0.1:5421, Data:$GPRMC,023304.00,V,,,,,,,120422,,,N*7C
$GP, Tue Apr 12 10:33:06 2022
Recv from 127.0.0.1:5421, Data:$GPRMC,023306.00,V,,,,,,,120422,,,N*7E
$GP, Tue Apr 12 10:33:08 2022
Recv from 127.0.0.1:5421, Data:$GPRMC,023308.00,V,,,,,,,120422,,,N*70
$GP, Tue Apr 12 10:33:10 2022
Recv from 127.0.0.1:5421, Data:$GPRMC,023310.00,V,,,,,,,120422,,,N*79
$GP, Tue Apr 12 10:33:12 2022
Recv from 127.0.0.1:5421, Data:$GPRMC,023312.00,V,,,,,,,120422,,,N*7B
$GP, Tue Apr 12 10:33:14 2022
Recv from 127.0.0.1:5421, Data:$GPRMC,023314.00,V,,,,,,,120422,,,N*7D
$GP, Tue Apr 12 10:33:16 2022
Recv from 127.0.0.1:5421, Data:$GPRMC,023316.00,V,,,,,,,120422,,,N*7F
$GP, Tue Apr 12 10:33:18 2022
Recv from 127.0.0.1:5421, Data:$GPRMC,023318.00,V,,,,,,,120422,,,N*71
$GP, Tue Apr 12 10:33:20 2022
Recv from 127.0.0.1:5421, Data:$GPRMC,023320.00,V,,,,,,,120422,,,N*7A
$GP, Tue Apr 12 10:33:22 2022
Recv from 127.0.0.1:5421, Data:$GPRMC,023322.00,V,,,,,,,120422,,,N*78
$GP, Tue Apr 12 10:33:24 2022
Recv from 127.0.0.1:5421, Data:$GPRMC,023324.00,V,,,,,,,120422,,,N*7E
$GP, Tue Apr 12 10:33:26 2022
Recv from 127.0.0.1:5421, Data:$GPRMC,023326.00,V,,,,,,,120422,,,N*7C
$GP, Tue Apr 12 10:33:28 2022
Recv from 127.0.0.1:5421, Data:$GPRMC,023328.00,V,,,,,,,120422,,,N*72
$GP, Tue Apr 12 10:33:29 2022
Recv from 127.0.0.1:5421, Data:$GPRMC,023330.00,V,,,,,,,120422,,,N*7B
$GP, Tue Apr 12 10:33:31 2022
Recv from 127.0.0.1:5421, Data:$GPRMC,023332.00,V,,,,,,,120422,,,N*79
$GP, Tue Apr 12 10:33:33 2022
Recv from 127.0.0.1:5421, Data:$GPRMC,023334.00,V,,,,,,,120422,,,N*7F
$GP, Tue Apr 12 10:33:35 2022
Recv from 127.0.0.1:5421, Data:$GPRMC,023336.00,V,,,,,,,120422,,,N*7D
$GP, Tue Apr 12 10:33:37 2022
Recv from 127.0.0.1:5421, Data:$GPRMC,023338.00,V,,,,,,,120422,,,N*73
$GP, Tue Apr 12 10:33:39 2022
Recv from 127.0.0.1:5421, Data:$GPRMC,023340.00,V,,,,,,,120422,,,N, Tue Apr 12 10:33:41 2022
Recv from 127.0.0.1:5488, Data:$GPRMC,023421.00,A,3958.80569,N,11620.60324, Tue Apr 12 10:34:22 2022
Recv from 127.0.0.1:5488, Data:$GPRMC,023423.00,A,3958.80775,N,11620.60329, Tue Apr 12 10:34:24 2022
Recv from 127.0.0.1:5488, Data:$GPRMC,023425.00,A,3958.81074,N,11620.60381, Tue Apr 12 10:34:26 2022
Recv from 127.0.0.1:5488, Data:$GPRMC,023427.00,A,3958.81249,N,11620.60469, Tue Apr 12 10:34:27 2022
Recv from 127.0.0.1:5488, Data:$GPRMC,023429.00,A,3958.81144,N,11620.60779, Tue Apr 12 10:34:29 2022
Recv from 127.0.0.1:5488, Data:$GPRMC,023431.00,A,3958.80684,N,11620.61387, Tue Apr 12 10:34:31 2022
Recv from 127.0.0.1:5488, Data:$GPRMC,023433.00,A,3958.80353,N,11620.61926, Tue Apr 12 10:34:33 2022
Recv from 127.0.0.1:5488, Data:$GPRMC,023435.00,A,3958.80100,N,11620.62337, Tue Apr 12 10:34:35 2022
Recv from 127.0.0.1:5488, Data:$GPRMC,023437.00,A,3958.79855,N,11620.62592, Tue Apr 12 10:34:37 2022
Recv from 127.0.0.1:5488, Data:$GPRMC,023439.00,A,3958.79723,N,11620.62723, Tue Apr 12 10:34:39 2022
Recv from 127.0.0.1:5488, Data:$GPRMC,023441.00,A,3958.79701,N,11620.62919, Tue Apr 12 10:34:41 2022
Recv from 127.0.0.1:5488, Data:$GPRMC,023443.00,A,3958.79732,N,11620.63053, Tue Apr 12 10:34:43 2022
Recv from 127.0.0.1:5488, Data:$GPRMC,023444.00,A,3958.79858,N,11620.63134, Tue Apr 12 10:34:45 2022
Recv from 127.0.0.1:5488, Data:$GPRMC,023446.00,A,3958.79917,N,11620.63249, Tue Apr 12 10:34:47 2022
Recv from 127.0.0.1:5488, Data:$GPRMC,023448.00,A,3958.79879,N,11620.63422, Tue Apr 12 10:34:49 2022
Recv from 127.0.0.1:5488, Data:$GPRMC,023450.00,A,3958.79938,N,11620.63633, Tue Apr 12 10:34:50 2022
Recv from 127.0.0.1:5488, Data:$GPRMC,023452.00,A,3958.80026,N,11620.63799, Tue Apr 12 10:34:52 2022
Recv from 127.0.0.1:5488, Data:$GPRMC,023454.00,A,3958.80055,N,11620.63902, Tue Apr 12 10:34:54 2022
Recv from 127.0.0.1:5488, Data:$GPRMC,023456.00,A,3958.80040,N,11620.64082, Tue Apr 12 10:34:56 2022
Recv from 127.0.0.1:5488, Data:$GPRMC,023458.00,A,3958.80044,N,11620.64276, Tue Apr 12 10:34:58 2022
Recv from 127.0.0.1:5488, Data:$GPRMC,023500.00,A,3958.80034,N,11620.64443, Tue Apr 12 10:35:00 2022
Recv from 127.0.0.1:5488, Data:$GPRMC,023502.00,A,3958.80009,N,11620.64682, Tue Apr 12 10:35:02 2022
Recv from 127.0.0.1:5488, Data:$GPRMC,023504.00,A,3958.80022,N,11620.64893, Tue Apr 12 10:35:04 2022
Recv from 127.0.0.1:5488, Data:$GPRMC,023506.00,A,3958.79958,N,11620.65286, Tue Apr 12 10:35:06 2022
Recv from 127.0.0.1:5488, Data:$GPRMC,023507.00,A,3958.80000,N,11620.65400, Tue Apr 12 10:35:08 2022
Recv from 127.0.0.1:5488, Data:$GPRMC,023509.00,A,3958.80019,N,11620.65617, Tue Apr 12 10:35:10 2022
Recv from 127.0.0.1:5488, Data:$GPRMC,023511.00,A,3958.80086,N,11620.65801, Tue Apr 12 10:35:12 2022
Recv from 127.0.0.1:5488, Data:$GPRMC,023513.00,A,3958.80139,N,11620.66042, Tue Apr 12 10:35:13 2022
Recv from 127.0.0.1:5488, Data:$GPRMC,023515.00,A,3958.80148,N,11620.66214, Tue Apr 12 10:35:15 2022
Recv from 127.0.0.1:5488, Data:$GPRMC,023517.00,A,3958.80174,N,11620.66406, Tue Apr 12 10:35:17 2022
Recv from 127.0.0.1:5488, Data:$GPRMC,023519.00,A,3958.80032,N,11620.66679, Tue Apr 12 10:35:19 2022
Recv from 127.0.0.1:5488, Data:$GPRMC,023521.00,A,3958.80026,N,11620.66844, Tue Apr 12 10:35:21 2022
Recv from 127.0.0.1:5488, Data:$GPRMC,023523.00,A,3958.79786,N,11620.67164, Tue Apr 12 10:35:23 2022
Recv from 127.0.0.1:5488, Data:$GPRMC,023525.00,A,3958.79651,N,11620.67455, Tue Apr 12 10:35:25 2022
Recv from 127.0.0.1:5488, Data:$GPRMC,023527.00,A,3958.79542,N,11620.67741, Tue Apr 12 10:35:27 2022
Recv from 127.0.0.1:5488, Data:$GPRMC,023528.00,A,3958.79417,N,11620.68233, Tue Apr 12 10:35:29 2022
Recv from 127.0.0.1:5488, Data:$GPRMC,023530.00,A,3958.79304,N,11620.68550, Tue Apr 12 10:35:31 2022
Recv from 127.0.0.1:5488, Data:$GPRMC,023532.00,A,3958.79189,N,11620.68931, Tue Apr 12 10:35:33 2022
Recv from 127.0.0.1:5488, Data:$GPRMC,023534.00,A,3958.79010,N,11620.69205, Tue Apr 12 10:35:34 2022
Recv from 127.0.0.1:5488, Data:$GPRMC,023536.00,A,3958.78904,N,11620.69539, Tue Apr 12 10:35:36 2022
Recv from 127.0.0.1:5488, Data:$GPRMC,023538.00,A,3958.78803,N,11620.69822, Tue Apr 12 10:35:38 2022
Recv from 127.0.0.1:5488, Data:$GPRMC,023540.00,A,3958.78721,N,11620.70003, Tue Apr 12 10:35:40 2022
Recv from 127.0.0.1:5488, Data:$GPRMC,023542.00,A,3958.78763,N,11620.70288, Tue Apr 12 10:35:42 2022
Recv from 127.0.0.1:5488, Data:$GPRMC,023544.00,A,3958.78962,N,11620.70335, Tue Apr 12 10:35:44 2022
Recv from 127.0.0.1:5488, Data:$GPRMC,023546.00,A,3958.79195,N,11620.70389, Tue Apr 12 10:35:46 2022
Recv from 127.0.0.1:5488, Data:$GPRMC,023548.00,A,3958.79273,N,11620.70456, Tue Apr 12 10:35:48 2022
Recv from 127.0.0.1:5488, Data:$GPRMC,023550.00,A,3958.79269,N,11620.70588, Tue Apr 12 10:35:50 2022
Recv from 127.0.0.1:5488, Data:$GPRMC,023551.00,A,3958.79323,N,11620.70782, Tue Apr 12 10:35:52 2022
Recv from 127.0.0.1:5488, Data:$GPRMC,023553.00,A,3958.79526,N,11620.71134, Tue Apr 12 10:35:54 2022
Recv from 127.0.0.1:5488, Data:$GPRMC,023555.00,A,3958.79535,N,11620.71455, Tue Apr 12 10:35:56 2022
Recv from 127.0.0.1:5488, Data:$GPRMC,023557.00,A,3958.79552,N,11620.71736, Tue Apr 12 10:35:57 2022
Recv from 127.0.0.1:5488, Data:$GPRMC,023559.00,A,3958.79585,N,11620.72007, Tue Apr 12 10:35:59 2022
Recv from 127.0.0.1:5488, Data:$GPRMC,023601.00,A,3958.79720,N,11620.72214, Tue Apr 12 10:36:01 2022
Recv from 127.0.0.1:5488, Data:$GPRMC,023603.00,A,3958.79776,N,11620.72457, Tue Apr 12 10:36:03 2022
Recv from 127.0.0.1:5488, Data:$GPRMC,023605.00,A,3958.79939,N,11620.72554, Tue Apr 12 10:36:05 2022
Recv from 127.0.0.1:5488, Data:$GPRMC,023607.00,A,3958.79976,N,11620.72744, Tue Apr 12 10:36:07 2022
Recv from 127.0.0.1:5488, Data:$GPRMC,023609.00,A,3958.79931,N,11620.72962, Tue Apr 12 10:36:09 2022
Recv from 127.0.0.1:5488, Data:$GPRMC,023611.00,A,3958.79895,N,11620.73128, Tue Apr 12 10:36:11 2022
Recv from 127.0.0.1:5488, Data:$GPRMC,023613.00,A,3958.79876,N,11620.73328, Tue Apr 12 10:36:13 2022
Recv from 127.0.0.1:5488, Data:$GPRMC,023614.00,A,3958.79940,N,11620.73448, Tue Apr 12 10:36:15 2022
Recv from 127.0.0.1:5488, Data:$GPRMC,023616.00,A,3958.80132,N,11620.73712, Tue Apr 12 10:36:17 2022
Recv from 127.0.0.1:5488, Data:$GPRMC,023618.00,A,3958.80326,N,11620.74106, Tue Apr 12 10:36:19 2022
Recv from 127.0.0.1:6013, Data:$GPRMC,022444.00,A,3958.79405,N,11620.42275, , Tue Apr 12 10:44:48 2022
Recv from 127.0.0.1:6013, Data:$GPRMC,022444.00,A,3958.79405,N,11620.42275, , Tue Apr 12 10:44:49 2022
Recv from 127.0.0.1:6013, Data:$GPRMC,022444.00,A,3958.79405,N,11620.42275, , Tue Apr 12 10:44:50 2022
Recv from 127.0.0.1:6013, Data:$GPRMC,022444.00,A,3958.79405,N,11620.42275, $GPRMC,022444.00,A,3958.79405,N,11620.42275, , Tue Apr 12 10:44:51 2022
Recv from 127.0.0.1:6013, Data:$GPRMC,022444.00,A,3958.79405,N,11620.42275, , Tue Apr 12 10:44:52 2022
Recv from 127.0.0.1:6013, Data:$GPRMC,022444.00,A,3958.79405,N,11620.42275, , Tue Apr 12 10:44:53 2022
Recv from 127.0.0.1:6013, Data:$GPRMC,022444.00,A,3958.79405,N,11620.42275, , Tue Apr 12 10:44:54 2022
Recv from 127.0.0.1:6013, Data:$GPRMC,022444.00,A,3958.79405,N,11620.42275, , Tue Apr 12 10:44:55 2022
Recv from 127.0.0.1:6013, Data:$GPRMC,022444.00,A,3958.79405,N,11620.42275, , Tue Apr 12 10:44:56 2022
Recv from 127.0.0.1:6013, Data:$GPRMC,022444.00,A,3958.79405,N,11620.42275, , Tue Apr 12 10:44:57 2022
Recv from 127.0.0.1:6378, Data:$GPRMC,022444.00,A,3958.79405,N,11620.42275, , Tue Apr 12 10:48:18 2022
Recv from 127.0.0.1:6378, Data:$GPRMC,022444.00,A,3958.79405,N,11620.42275, , Tue Apr 12 10:48:19 2022
Recv from 127.0.0.1:6378, Data:$GPRMC,022444.00,A,3958.79405,N,11620.42275, , Tue Apr 12 10:48:20 2022
Recv from 127.0.0.1:6378, Data:$GPRMC,022444.00,A,3958.79405,N,11620.42275, , Tue Apr 12 10:48:21 2022
Recv from 127.0.0.1:6378, Data:$GPRMC,022444.00,A,3958.79405,N,11620.42275, , Tue Apr 12 10:48:22 2022
Recv from 127.0.0.1:6378, Data:$GPRMC,022444.00,A,3958.79405,N,11620.42275, , Tue Apr 12 10:48:23 2022
Recv from 127.0.0.1:6512, Data:$GPRMC,022444.00,A,3958.79405,N,11620.42275, , Tue Apr 12 10:49:22 2022
Recv from 127.0.0.1:6512, Data:$GPRMC,022444.00,A,3958.79405,N,11620.42275, $GPRMC,022444.00,A,3958.79405,N,11620.42275, , Tue Apr 12 10:49:23 2022
Recv from 127.0.0.1:6512, Data:$GPRMC,022444.00,A,3958.79405,N,11620.42275, , Tue Apr 12 10:49:24 2022
Recv from 127.0.0.1:6512, Data:$GPRMC,022444.00,A,3958.79405,N,11620.42275, , Tue Apr 12 10:49:25 2022
Recv from 127.0.0.1:6512, Data:$GPRMC,022444.00,A,3958.79405,N,11620.42275, , Tue Apr 12 10:49:26 2022
Recv from 127.0.0.1:6512, Data:$GPRMC,022444.00,A,3958.79405,N,11620.42275, , Tue Apr 12 10:49:27 2022
Recv from 127.0.0.1:6512, Data:$GPRMC,022444.00,A,3958.79405,N,11620.42275, , Tue Apr 12 10:49:28 2022
Recv from 127.0.0.1:6512, Data:$GPRMC,022444.00,A,3958.79405,N,11620.42275, , Tue Apr 12 10:49:29 2022
Recv from 127.0.0.1:6512, Data:$GPRMC,022444.00,A,3958.79405,N,11620.42275, , Tue Apr 12 10:49:30 2022
Recv from 127.0.0.1:6512, Data:$GPRMC,022444.00,A,3958.79405,N,11620.42275, , Tue Apr 12 10:49:31 2022
Recv from 127.0.0.1:6512, Data:$GPRMC,022444.00,A,3958.79405,N,11620.42275, , Tue Apr 12 10:49:32 2022
Recv from 127.0.0.1:6512, Data:$GPRMC,022444.00,A,3958.79405,N,11620.42275, , Tue Apr 12 10:49:33 2022
Recv from 127.0.0.1:6512, Data:$GPRMC,022444.00,A,3958.79405,N,11620.42275, , Tue Apr 12 10:49:34 2022
Recv from 127.0.0.1:6512, Data:$GPRMC,022444.00,A,3958.79405,N,11620.42275, , Tue Apr 12 10:49:35 2022
Recv from 127.0.0.1:6512, Data:$GPRMC,022444.00,A,3958.79405,N,11620.42275, , Tue Apr 12 10:49:36 2022
Recv from 127.0.0.1:6512, Data:$GPRMC,022444.00,A,3958.79405,N,11620.42275, , Tue Apr 12 10:49:37 2022
Recv from 127.0.0.1:6512, Data:$GPRMC,022444.00,A,3958.79405,N,11620.42275, , Tue Apr 12 10:49:38 2022
Recv from 127.0.0.1:6512, Data:$GPRMC,022444.00,A,3958.79405,N,11620.42275, , Tue Apr 12 10:49:39 2022
Recv from 127.0.0.1:8455, Data:$GPRMC,121006.00,A,3958.78821,N,11620.82746,$GPRMC,121006.00,A,3958.78821,N,11620.82746,, Tue Apr 12 11:12:07 2022
Recv from 127.0.0.1:8455, Data:$GPRMC,121006.00,A,3958.78821,N,11620.82746,, Tue Apr 12 11:12:08 2022
Recv from 127.0.0.1:8455, Data:$GPRMC,121006.00,A,3958.78821,N,11620.82746,, Tue Apr 12 11:12:09 2022
Recv from 127.0.0.1:12988, Data:$GPRMC,121006.00,A,3958.78821,N,11620.82746,, Tue Apr 12 16:43:40 2022
Recv from 127.0.0.1:12988, Data:$GPRMC,121006.00,A,3958.78821,N,11620.82746,$GPRMC,121006.00,A,3958.78821,N,11620.82746,, Tue Apr 12 16:43:41 2022
Recv from 127.0.0.1:12988, Data:$GPRMC,121006.00,A,3958.78821,N,11620.82746,, Tue Apr 12 16:43:42 2022
Recv from 127.0.0.1:12988, Data:$GPRMC,121006.00,A,3958.78821,N,11620.82746,, Tue Apr 12 16:43:43 2022
Recv from 127.0.0.1:12988, Data:$GPRMC,121006.00,A,3958.78821,N,11620.82746,, Tue Apr 12 16:43:44 2022
Recv from 127.0.0.1:12988, Data:$GPRMC,121006.00,A,3958.78821,N,11620.82746,, Tue Apr 12 16:43:45 2022
Recv from 127.0.0.1:12988, Data:$GPRMC,121006.00,A,3958.78821,N,11620.82746,, Tue Apr 12 16:43:46 2022
Recv from 127.0.0.1:12988, Data:$GPRMC,121006.00,A,3958.78821,N,11620.82746,, Tue Apr 12 16:43:47 2022
Recv from 127.0.0.1:12988, Data:$GPRMC,121006.00,A,3958.78821,N,11620.82746,, Tue Apr 12 16:43:48 2022
Recv from 127.0.0.1:12988, Data:$GPRMC,121006.00,A,3958.78821,N,11620.82746,, Tue Apr 12 16:43:49 2022
Recv from 127.0.0.1:12988, Data:$GPRMC,121006.00,A,3958.78821,N,11620.82746,, Tue Apr 12 16:43:50 2022
Recv from 127.0.0.1:12988, Data:$GPRMC,121006.00,A,3958.78821,N,11620.82746,, Tue Apr 12 16:43:51 2022
Recv from 127.0.0.1:12988, Data:$GPRMC,121006.00,A,3958.78821,N,11620.82746,, Tue Apr 12 16:43:52 2022
Recv from 127.0.0.1:12988, Data:$GPRMC,121006.00,A,3958.78821,N,11620.82746,, Tue Apr 12 16:43:53 2022
Recv from 127.0.0.1:12988, Data:$GPRMC,121006.00,A,3958.78821,N,11620.82746,, Tue Apr 12 16:43:55 2022
Recv from 127.0.0.1:12988, Data:$GPRMC,121006.00,A,3958.78821,N,11620.82746,, Tue Apr 12 16:43:56 2022
Recv from 127.0.0.1:12988, Data:$GPRMC,121006.00,A,3958.78821,N,11620.82746,, Tue Apr 12 16:43:57 2022
Recv from 127.0.0.1:12988, Data:$GPRMC,121006.00,A,3958.78821,N,11620.82746,, Tue Apr 12 16:43:58 2022
Recv from 127.0.0.1:12988, Data:$GPRMC,121006.00,A,3958.78821,N,11620.82746,, Tue Apr 12 16:43:59 2022
Recv from 127.0.0.1:12988, Data:$GPRMC,121006.00,A,3958.78821,N,11620.82746,, Tue Apr 12 16:44:00 2022
Recv from 127.0.0.1:13105, Data:$GPRMC,121006.00,A,3958.78821,N,11620.82746,, Tue Apr 12 16:45:09 2022
Recv from 127.0.0.1:13105, Data:$GPRMC,121006.00,A,3958.78821,N,11620.82746,$GPRMC,121006.00,A,3958.78821,N,11620.82746,, Tue Apr 12 16:45:10 2022
Recv from 127.0.0.1:13105, Data:$GPRMC,121006.00,A,3958.78821,N,11620.82746,, Tue Apr 12 16:45:11 2022
Recv from 127.0.0.1:13163, Data:$GPRMC,065528.00,A,3959.72175,N,11621.92775, Tue Apr 12 16:46:16 2022
Recv from 127.0.0.1:13163, Data:$GPRMC,065528.00,A,3960.72175,N,11622.92775$GPRMC,065528.00,A,3961.72175,N,11623.92775, Tue Apr 12 16:46:17 2022
Recv from 127.0.0.1:13163, Data:$GPRMC,065528.00,A,3962.72175,N,11624.92775, Tue Apr 12 16:46:18 2022
Recv from 127.0.0.1:13163, Data:$GPRMC,065528.00,A,3963.72175,N,11625.92775, Tue Apr 12 16:46:19 2022
Recv from 127.0.0.1:13163, Data:$GPRMC,065528.00,A,3964.72175,N,11626.92775, Tue Apr 12 16:46:20 2022
Recv from 127.0.0.1:13163, Data:$GPRMC,065528.00,A,3965.72175,N,11627.92775, Tue Apr 12 16:46:21 2022
Recv from 127.0.0.1:13163, Data:$GPRMC,065528.00,A,3966.72175,N,11628.92775, Tue Apr 12 16:46:22 2022
Recv from 127.0.0.1:13163, Data:$GPRMC,065528.00,A,3967.72175,N,11629.92775, Tue Apr 12 16:46:23 2022
Recv from 127.0.0.1:13163, Data:$GPRMC,065528.00,A,3968.72175,N,11630.92775, Tue Apr 12 16:46:24 2022
Recv from 127.0.0.1:13163, Data:$GPRMC,065528.00,A,3969.72175,N,11631.92775, Tue Apr 12 16:46:25 2022
Recv from 127.0.0.1:13163, Data:$GPRMC,065528.00,A,3970.72175,N,11632.92775, Tue Apr 12 16:46:26 2022
Recv from 127.0.0.1:13163, Data:$GPRMC,065528.00,A,3971.72175,N,11633.92775, Tue Apr 12 16:46:27 2022
Recv from 127.0.0.1:13163, Data:$GPRMC,065528.00,A,3972.72175,N,11634.92775, Tue Apr 12 16:46:28 2022
Recv from 127.0.0.1:13163, Data:$GPRMC,065528.00,A,3973.72175,N,11635.92775, Tue Apr 12 16:46:29 2022
Recv from 127.0.0.1:13163, Data:$GPRMC,065528.00,A,3974.72175,N,11636.92775, Tue Apr 12 16:46:30 2022
Recv from 127.0.0.1:13163, Data:$GPRMC,065528.00,A,3975.72175,N,11637.92775, Tue Apr 12 16:46:31 2022
Recv from 127.0.0.1:13163, Data:$GPRMC,065528.00,A,3976.72175,N,11638.92775, Tue Apr 12 16:46:33 2022
Recv from 127.0.0.1:13163, Data:$GPRMC,065528.00,A,3977.72175,N,11639.92775, Tue Apr 12 16:46:34 2022
Recv from 127.0.0.1:13163, Data:$GPRMC,065528.00,A,3978.72175,N,11640.92775, Tue Apr 12 16:46:35 2022
Recv from 127.0.0.1:5807, Data:$GPRMC,065528.00,A,3959.72175,N,11621.92775, Tue Apr 12 16:51:37 2022
Recv from 127.0.0.1:5807, Data:$GPRMC,065528.00,A,3960.72175,N,11622.92775$GPRMC,065528.00,A,3961.72175,N,11623.92775, Tue Apr 12 16:51:38 2022
Recv from 127.0.0.1:5807, Data:$GPRMC,065528.00,A,3962.72175,N,11624.92775, Tue Apr 12 16:51:39 2022
Recv from 127.0.0.1:5807, Data:$GPRMC,065528.00,A,3963.72175,N,11625.92775, Tue Apr 12 16:51:40 2022
Recv from 127.0.0.1:5807, Data:$GPRMC,065528.00,A,3964.72175,N,11626.92775, Tue Apr 12 16:51:41 2022
Recv from 127.0.0.1:5807, Data:$GPRMC,065528.00,A,3965.72175,N,11627.92775, Tue Apr 12 16:51:42 2022
Recv from 127.0.0.1:5872, Data:$GPRMC,065528.00,A,3959.72175,N,11621.92775$GPRMC,065528.00,A,3960.72175,N,11622.92775, Tue Apr 12 16:52:31 2022
Recv from 127.0.0.1:5872, Data:$GPRMC,065528.00,A,3961.72175,N,11623.92775, Tue Apr 12 16:52:32 2022
Recv from 127.0.0.1:5872, Data:$GPRMC,065528.00,A,3962.72175,N,11624.92775, Tue Apr 12 16:52:33 2022
Recv from 127.0.0.1:5872, Data:$GPRMC,065528.00,A,3963.72175,N,11625.92775$GPRMC,065528.00,A,3964.72175,N,11626.92775$GPRMC,065528.00,A,3965.72175,N,11627.92775$GPRMC,065528.00,A,3966.72175,N,11628.92775$GPRMC,065528.00,A,3967.72175,N,11629.92775$GPRMC,065528.00,A,3968.72175,N,11630.92775$GPRMC,065528.00,A,3969.72175,N,11631.92775$GPRMC,065528.00,A,3970.72175,N,11632.92775, Tue Apr 12 16:52:41 2022
Recv from 127.0.0.1:5872, Data:$GPRMC,065528.00,A,3971.72175,N,11633.92775, Tue Apr 12 16:52:42 2022
Recv from 127.0.0.1:5872, Data:$GPRMC,065528.00,A,3972.72175,N,11634.92775, Tue Apr 12 16:52:43 2022
Recv from 127.0.0.1:5872, Data:$GPRMC,065528.00,A,3973.72175,N,11635.92775, Tue Apr 12 16:52:44 2022
Recv from 127.0.0.1:5872, Data:$GPRMC,065528.00,A,3974.72175,N,11636.92775, Tue Apr 12 16:52:45 2022
Recv from 127.0.0.1:5872, Data:$GPRMC,065528.00,A,3975.72175,N,11637.92775, Tue Apr 12 16:52:46 2022
Recv from 127.0.0.1:5872, Data:$GPRMC,065528.00,A,3976.72175,N,11638.92775, Tue Apr 12 16:52:47 2022
Recv from 127.0.0.1:5872, Data:$GPRMC,065528.00,A,3977.72175,N,11639.92775, Tue Apr 12 16:52:48 2022
Recv from 127.0.0.1:5872, Data:$GPRMC,065528.00,A,3978.72175,N,11640.92775, Tue Apr 12 16:52:49 2022
Recv from 127.0.0.1:5872, Data:$GPRMC,065528.00,A,3979.72175,N,11641.92775, Tue Apr 12 16:52:50 2022
Recv from 127.0.0.1:5872, Data:$GPRMC,065528.00,A,3980.72175,N,11642.92775, Tue Apr 12 16:52:51 2022
Recv from 127.0.0.1:5872, Data:$GPRMC,065528.00,A,3981.72175,N,11643.92775, Tue Apr 12 16:52:52 2022
Recv from 127.0.0.1:5872, Data:$GPRMC,065528.00,A,3982.72175,N,11644.92775, Tue Apr 12 16:52:53 2022
Recv from 127.0.0.1:5872, Data:$GPRMC,065528.00,A,3983.72175,N,11645.92775, Tue Apr 12 16:52:55 2022
Recv from 127.0.0.1:5872, Data:$GPRMC,065528.00,A,3984.72175,N,11646.92775, Tue Apr 12 16:52:56 2022
Recv from 127.0.0.1:5872, Data:$GPRMC,065528.00,A,3985.72175,N,11647.92775, Tue Apr 12 16:52:57 2022
Recv from 127.0.0.1:5872, Data:$GPRMC,065528.00,A,3986.72175,N,11648.92775, Tue Apr 12 16:52:58 2022
Recv from 127.0.0.1:5872, Data:$GPRMC,065528.00,A,3987.72175,N,11649.92775, Tue Apr 12 16:52:59 2022
Recv from 127.0.0.1:5872, Data:$GPRMC,065528.00,A,3988.72175,N,11650.92775, Tue Apr 12 16:53:00 2022
Recv from 127.0.0.1:5872, Data:$GPRMC,065528.00,A,3989.72175,N,11651.92775$GPRMC,065528.00,A,3990.72175,N,11652.92775, Tue Apr 12 16:53:01 2022
Recv from 127.0.0.1:5872, Data:$GPRMC,065528.00,A,3991.72175,N,11653.92775, Tue Apr 12 16:53:02 2022
Recv from 127.0.0.1:5872, Data:$GPRMC,065528.00,A,3992.72175,N,11654.92775, Tue Apr 12 16:53:03 2022
Recv from 127.0.0.1:5872, Data:$GPRMC,065528.00,A,3993.72175,N,11655.92775, Tue Apr 12 16:53:04 2022
Recv from 127.0.0.1:5872, Data:$GPRMC,065528.00,A,3994.72175,N,11656.92775, Tue Apr 12 16:53:05 2022
Recv from 127.0.0.1:5872, Data:$GPRMC,065528.00,A,3995.72175,N,11657.92775, Tue Apr 12 16:53:06 2022
Recv from 127.0.0.1:5872, Data:$GPRMC,065528.00,A,3996.72175,N,11658.92775, Tue Apr 12 16:53:07 2022
Recv from 127.0.0.1:5872, Data:$GPRMC,065528.00,A,3997.72175,N,11659.92775, Tue Apr 12 16:53:08 2022
Recv from 127.0.0.1:5872, Data:$GPRMC,065528.00,A,3998.72175,N,11660.92775, Tue Apr 12 16:53:09 2022
Recv from 127.0.0.1:5872, Data:$GPRMC,065528.00,A,3999.72175,N,11661.92775, Tue Apr 12 16:53:10 2022
Recv from 127.0.0.1:5872, Data:$GPRMC,065528.00,A,4000.72175,N,11662.92775, Tue Apr 12 16:53:11 2022
Recv from 127.0.0.1:5872, Data:$GPRMC,065528.00,A,4001.72175,N,11663.92775, Tue Apr 12 16:53:13 2022
Recv from 127.0.0.1:5872, Data:$GPRMC,065528.00,A,4002.72175,N,11664.92775, Tue Apr 12 16:53:14 2022
Recv from 127.0.0.1:5872, Data:$GPRMC,065528.00,A,4003.72175,N,11665.92775, Tue Apr 12 16:53:15 2022
Recv from 127.0.0.1:5872, Data:$GPRMC,065528.00,A,4004.72175,N,11666.92775, Tue Apr 12 16:53:16 2022
Recv from 127.0.0.1:5872, Data:$GPRMC,065528.00,A,4005.72175,N,11667.92775, Tue Apr 12 16:53:17 2022
Recv from 127.0.0.1:5872, Data:$GPRMC,065528.00,A,4006.72175,N,11668.92775, Tue Apr 12 16:53:18 2022
Recv from 127.0.0.1:5872, Data:$GPRMC,065528.00,A,4007.72175,N,11669.92775$GPRMC,065528.00,A,4008.72175,N,11670.92775, Tue Apr 12 16:53:19 2022
Recv from 127.0.0.1:5872, Data:$GPRMC,065528.00,A,4009.72175,N,11671.92775, Tue Apr 12 16:53:20 2022
Recv from 127.0.0.1:5872, Data:$GPRMC,065528.00,A,4010.72175,N,11672.92775, Tue Apr 12 16:53:21 2022
Recv from 127.0.0.1:5872, Data:$GPRMC,065528.00,A,4011.72175,N,11673.92775$GPRMC,065528.00,A,4012.72175,N,11674.92775, Tue Apr 12 16:53:23 2022
Recv from 127.0.0.1:5872, Data:$GPRMC,065528.00,A,4013.72175,N,11675.92775, Tue Apr 12 16:53:24 2022
Recv from 127.0.0.1:5872, Data:$GPRMC,065528.00,A,4014.72175,N,11676.92775, Tue Apr 12 16:53:25 2022
Recv from 127.0.0.1:5872, Data:$GPRMC,065528.00,A,4015.72175,N,11677.92775, Tue Apr 12 16:53:26 2022
Recv from 127.0.0.1:5872, Data:$GPRMC,065528.00,A,4016.72175,N,11678.92775, Tue Apr 12 16:53:27 2022
