Recv from 127.0.0.1:7558, Data:$GPRMC,120544.00,V,,,,,,,080422,,,N*77
$GP, Fri Apr  8 20:05:42 2022
Recv from 127.0.0.1:7558, Data:$GPRMC,120546.00,V,,,,,,,080422,,,N*75
$GP, Fri Apr  8 20:05:44 2022
Recv from 127.0.0.1:7558, Data:$GPRMC,120548.00,V,,,,,,,080422,,,N*7B
$GP, Fri Apr  8 20:05:46 2022
Recv from 127.0.0.1:7558, Data:$GPRMC,120550.00,V,,,,,,,080422,,,N*72
$GP, Fri Apr  8 20:05:48 2022
Recv from 127.0.0.1:7558, Data:$GPRMC,120552.00,V,,,,,,,080422,,,N*70
$GP, Fri Apr  8 20:05:50 2022
Recv from 127.0.0.1:7558, Data:$GPRMC,120554.00,V,,,,,,,080422,,,N*76
$GP, Fri Apr  8 20:05:52 2022
Recv from 127.0.0.1:7558, Data:$GPRMC,120556.00,V,,,,,,,080422,,,N*74
$GP, Fri Apr  8 20:05:54 2022
Recv from 127.0.0.1:7558, Data:$GPRMC,120558.00,V,,,,,,,080422,,,N*7A
$GP, Fri Apr  8 20:05:56 2022
Recv from 127.0.0.1:7558, Data:$GPRMC,120600.00,V,,,,,,,080422,,,N*74
$GP, Fri Apr  8 20:05:58 2022
Recv from 127.0.0.1:7558, Data:$GPRMC,120602.00,V,,,,,,,080422,,,N*76
$GP, Fri Apr  8 20:06:00 2022
Recv from 127.0.0.1:7558, Data:$GPRMC,120605.00,A,3958.79265,N,11620.82148, Fri Apr  8 20:06:02 2022
Recv from 127.0.0.1:7558, Data:$GPRMC,120607.00,A,3958.79246,N,11620.82150, Fri Apr  8 20:06:03 2022
Recv from 127.0.0.1:7558, Data:$GPRMC,120608.00,A,3958.79229,N,11620.82178, Fri Apr  8 20:06:05 2022
Recv from 127.0.0.1:7558, Data:$GPRMC,120610.00,A,3958.79231,N,11620.82207, Fri Apr  8 20:06:07 2022
Recv from 127.0.0.1:7558, Data:$GPRMC,120612.00,A,3958.79239,N,11620.82202, Fri Apr  8 20:06:09 2022
Recv from 127.0.0.1:7558, Data:$GPRMC,120614.00,A,3958.79253,N,11620.82181, Fri Apr  8 20:06:11 2022
Recv from 127.0.0.1:7558, Data:$GPRMC,120616.00,A,3958.79255,N,11620.82156, Fri Apr  8 20:06:13 2022
Recv from 127.0.0.1:7558, Data:$GPRMC,120618.00,A,3958.79243,N,11620.82131, Fri Apr  8 20:06:15 2022
Recv from 127.0.0.1:7558, Data:$GPRMC,120620.00,A,3958.79219,N,11620.82122, Fri Apr  8 20:06:17 2022
Recv from 127.0.0.1:7558, Data:$GPRMC,120622.00,A,3958.79191,N,11620.82140, Fri Apr  8 20:06:19 2022
Recv from 127.0.0.1:7558, Data:$GPRMC,120624.00,A,3958.79160,N,11620.82179, Fri Apr  8 20:06:21 2022
Recv from 127.0.0.1:7558, Data:$GPRMC,120626.00,A,3958.79133,N,11620.82209, Fri Apr  8 20:06:23 2022
Recv from 127.0.0.1:7558, Data:$GPRMC,120628.00,A,3958.79120,N,11620.82229, Fri Apr  8 20:06:25 2022
Recv from 127.0.0.1:7558, Data:$GPRMC,120630.00,A,3958.79109,N,116, Fri Apr  8 20:06:26 2022
Recv from 127.0.0.1:7698, Data:$GPRMC,120710.00,A,3958.79202,N,11620.82228, Fri Apr  8 20:07:07 2022
Recv from 127.0.0.1:7698, Data:$GPRMC,120712.00,A,3958.79099,N,11620.82213, Fri Apr  8 20:07:09 2022
Recv from 127.0.0.1:7698, Data:$GPRMC,120714.00,A,3958.78995,N,11620.82195, Fri Apr  8 20:07:11 2022
Recv from 127.0.0.1:7698, Data:$GPRMC,120716.00,A,3958.78895,N,11620.82187, Fri Apr  8 20:07:13 2022
Recv from 127.0.0.1:7698, Data:$GPRMC,120718.00,A,3958.78803,N,11620.82193, Fri Apr  8 20:07:15 2022
Recv from 127.0.0.1:7698, Data:$GPRMC,120720.00,A,3958.78729,N,11620.82184, Fri Apr  8 20:07:17 2022
Recv from 127.0.0.1:7698, Data:$GPRMC,120722.00,A,3958.78654,N,11620.82176, Fri Apr  8 20:07:19 2022
Recv from 127.0.0.1:7698, Data:$GPRMC,120724.00,A,3958.78584,N,11620.82165, Fri Apr  8 20:07:21 2022
Recv from 127.0.0.1:7698, Data:$GPRMC,120726.00,A,3958.78537,N,11620.82153, Fri Apr  8 20:07:23 2022
Recv from 127.0.0.1:7698, Data:$GPRMC,120728.00,A,3958.78468,N,11620.82293, Fri Apr  8 20:07:25 2022
Recv from 127.0.0.1:7698, Data:$GPRMC,120729.00,A,3958.78460,N,11620.82340, Fri Apr  8 20:07:26 2022
Recv from 127.0.0.1:7698, Data:$GPRMC,120731.00,A,3958.78474,N,11620.82385, Fri Apr  8 20:07:28 2022
Recv from 127.0.0.1:7698, Data:$GPRMC,120733.00,A,3958.78488,N,11620.82409, Fri Apr  8 20:07:30 2022
Recv from 127.0.0.1:7698, Data:$GPRMC,120735.00,A,3958.78502,N,11620.82418, Fri Apr  8 20:07:32 2022
Recv from 127.0.0.1:7698, Data:$GPRMC,120737.00,A,3958.78517,N,11620.82418, Fri Apr  8 20:07:34 2022
Recv from 127.0.0.1:7698, Data:$GPRMC,120739.00,A,3958.78526,N,11620.82419, Fri Apr  8 20:07:36 2022
Recv from 127.0.0.1:7698, Data:$GPRMC,120741.00,A,3958.78536,N,11620.82414, Fri Apr  8 20:07:38 2022
Recv from 127.0.0.1:7698, Data:$GPRMC,120743.00,A,3958.78544,N,11620.82414, Fri Apr  8 20:07:40 2022
Recv from 127.0.0.1:7698, Data:$GPRMC,120745.00,A,3958.78553,N,11620.82414, Fri Apr  8 20:07:42 2022
Recv from 127.0.0.1:7698, Data:$GPRMC,120747.00,A,3958.78561,N,11620.82411, Fri Apr  8 20:07:44 2022
Recv from 127.0.0.1:7698, Data:$GPRMC,120749.00,A,3958.78572,N,11620.82401, Fri Apr  8 20:07:46 2022
Recv from 127.0.0.1:7698, Data:$GPRMC,120751.00,A,3958.78585,N,11620.82390, Fri Apr  8 20:07:47 2022
Recv from 127.0.0.1:7698, Data:$GPRMC,120752.00,A,3958.78595,N,11620.82386, Fri Apr  8 20:07:49 2022
Recv from 127.0.0.1:7698, Data:$GPRMC,120754.00,A,3958.78616,N,116, Fri Apr  8 20:07:51 2022
Recv from 127.0.0.1:7829, Data:$GPRMC,120835.00,A,3958.78808,N,11620.82358, Fri Apr  8 20:08:32 2022
Recv from 127.0.0.1:7829, Data:$GPRMC,120837.00,A,3958.78810,N,11620.82389, Fri Apr  8 20:08:34 2022
Recv from 127.0.0.1:7829, Data:$GPRMC,120839.00,A,3958.78805,N,11620.82445, Fri Apr  8 20:08:36 2022
Recv from 127.0.0.1:7829, Data:$GPRMC,120841.00,A,3958.78792,N,11620.82488, Fri Apr  8 20:08:38 2022
Recv from 127.0.0.1:7829, Data:$GPRMC,120843.00,A,3958.78784,N,11620.82507, Fri Apr  8 20:08:40 2022
Recv from 127.0.0.1:7829, Data:$GPRMC,120845.00,A,3958.78777,N,11620.82516, Fri Apr  8 20:08:42 2022
Recv from 127.0.0.1:7829, Data:$GPRMC,120847.00,A,3958.78765,N,11620.82522, Fri Apr  8 20:08:44 2022
Recv from 127.0.0.1:7829, Data:$GPRMC,120849.00,A,3958.78763,N,11620.82483, Fri Apr  8 20:08:46 2022
Recv from 127.0.0.1:7829, Data:$GPRMC,120850.00,A,3958.78758,N,11620.82424, Fri Apr  8 20:08:47 2022
Recv from 127.0.0.1:7829, Data:$GPRMC,120852.00,A,3958.78757,N,11620.82398, Fri Apr  8 20:08:49 2022
Recv from 127.0.0.1:7829, Data:$GPRMC,120854.00,A,3958.78752,N,11620.82369, Fri Apr  8 20:08:51 2022
Recv from 127.0.0.1:7829, Data:$GPRMC,120856.00,A,3958.78741,N,11620.82356, Fri Apr  8 20:08:53 2022
Recv from 127.0.0.1:7829, Data:$GPRMC,120858.00,A,3958.78734,N,11620.82342, Fri Apr  8 20:08:55 2022
Recv from 127.0.0.1:7829, Data:$GPRMC,120900.00,A,3958.78720,N,11620.82334, Fri Apr  8 20:08:57 2022
Recv from 127.0.0.1:7829, Data:$GPRMC,120902.00,A,3958.78696,N,11620.82324, Fri Apr  8 20:08:59 2022
Recv from 127.0.0.1:7829, Data:$GPRMC,120904.00,A,3958.78659,N,11620.82323, Fri Apr  8 20:09:01 2022
Recv from 127.0.0.1:7829, Data:$GPRMC,120906.00,A,3958.78646,N,11620.82319, Fri Apr  8 20:09:03 2022
Recv from 127.0.0.1:7829, Data:$GPRMC,120908.00,A,3958.78631,N,11620.82350, Fri Apr  8 20:09:05 2022
Recv from 127.0.0.1:7829, Data:$GPRMC,120910.00,A,3958.78613,N,11620.82425, Fri Apr  8 20:09:07 2022
Recv from 127.0.0.1:7829, Data:$GPRMC,120912.00,A,3958.78593,N,11620.82504, Fri Apr  8 20:09:08 2022
Recv from 127.0.0.1:7829, Data:$GPRMC,120913.00,A,3958.78586,N,11620.82534, Fri Apr  8 20:09:10 2022
Recv from 127.0.0.1:7829, Data:$GPRMC,120915.00,A,3958.78580,N,11620.82585, Fri Apr  8 20:09:12 2022
Recv from 127.0.0.1:7829, Data:$GPRMC,120917.00,A,3958.78579,N,11620.82630, Fri Apr  8 20:09:14 2022
Recv from 127.0.0.1:7829, Data:$GPRMC,120919.00,A,3958.78585,N,116, Fri Apr  8 20:09:16 2022
Recv from 127.0.0.1:7955, Data:$GPRMC,121000.00,A,3958.78737,N,11620.82728, Fri Apr  8 20:09:57 2022
Recv from 127.0.0.1:7955, Data:$GPRMC,121002.00,A,3958.78759,N,11620.82733, Fri Apr  8 20:09:59 2022
Recv from 127.0.0.1:7955, Data:$GPRMC,121004.00,A,3958.78788,N,11620.82733, Fri Apr  8 20:10:01 2022
Recv from 127.0.0.1:7955, Data:$GPRMC,121006.00,A,3958.78821,N,11620.82746, Fri Apr  8 20:10:03 2022
Recv from 127.0.0.1:7955, Data:$GPRMC,121008.00,A,3958.78850,N,11620.82747, Fri Apr  8 20:10:05 2022
Recv from 127.0.0.1:7955, Data:$GPRMC,121010.00,A,3958.78880,N,11620.82756, Fri Apr  8 20:10:07 2022
Recv from 127.0.0.1:7955, Data:$GPRMC,121011.00,A,3958.78907,N,11620.82761, Fri Apr  8 20:10:08 2022
Recv from 127.0.0.1:7955, Data:$GPRMC,121013.00,A,3958.78912,N,11620.82753, Fri Apr  8 20:10:10 2022
Recv from 127.0.0.1:7955, Data:$GPRMC,121015.00,A,3958.78935,N,11620.82752, Fri Apr  8 20:10:12 2022
Recv from 127.0.0.1:7955, Data:$GPRMC,121017.00,A,3958.78965,N,11620.82759, Fri Apr  8 20:10:14 2022
Recv from 127.0.0.1:7955, Data:$GPRMC,121019.00,A,3958.78982,N,11620.82746, Fri Apr  8 20:10:16 2022
Recv from 127.0.0.1:7955, Data:$GPRMC,121021.00,A,3958.79000,N,11620.82738, Fri Apr  8 20:10:18 2022
Recv from 127.0.0.1:7955, Data:$GPRMC,121023.00,A,3958.79016,N,11620.82722, Fri Apr  8 20:10:20 2022
Recv from 127.0.0.1:7955, Data:$GPRMC,121025.00,A,3958.79023,N,11620.82714, Fri Apr  8 20:10:22 2022
Recv from 127.0.0.1:7955, Data:$GPRMC,121027.00,A,3958.79026,N,11620.82705, Fri Apr  8 20:10:24 2022
Recv from 127.0.0.1:7955, Data:$GPRMC,121029.00,A,3958.79023,N,11620.82692, Fri Apr  8 20:10:26 2022
Recv from 127.0.0.1:7955, Data:$GPRMC,121031.00,A,3958.79019,N,11620.82686, Fri Apr  8 20:10:28 2022
Recv from 127.0.0.1:7955, Data:$GPRMC,121033.00,A,3958.79011,N,11620.82670, Fri Apr  8 20:10:30 2022
Recv from 127.0.0.1:7955, Data:$GPRMC,121034.00,A,3958.79006,N,11620.82662, Fri Apr  8 20:10:31 2022
Recv from 127.0.0.1:7955, Data:$GPRMC,121036.00,A,3958.78993,N,11620.82643, Fri Apr  8 20:10:33 2022
Recv from 127.0.0.1:7955, Data:$GPRMC,121038.00,A,3958.78969,N,11620.82596, Fri Apr  8 20:10:35 2022
Recv from 127.0.0.1:7955, Data:$GPRMC,121040.00,A,3958.78947,N,11620.82540, Fri Apr  8 20:10:37 2022
Recv from 127.0.0.1:7955, Data:$GPRMC,121042.00,A,3958.78940,N,11620.82504, Fri Apr  8 20:10:39 2022
Recv from 127.0.0.1:7955, Data:$GPRMC,121044.00,A,3958.78932,N,116, Fri Apr  8 20:10:41 2022
Recv from 127.0.0.1:8095, Data:$GPRMC,121125.00,A,3958.78864,N,11620.82059, Fri Apr  8 20:11:22 2022
Recv from 127.0.0.1:8095, Data:$GPRMC,121127.00,A,3958.78843,N,11620.82035, Fri Apr  8 20:11:24 2022
Recv from 127.0.0.1:8095, Data:$GPRMC,121129.00,A,3958.78880,N,11620.82037, Fri Apr  8 20:11:26 2022
Recv from 127.0.0.1:8095, Data:$GPRMC,121131.00,A,3958.78904,N,11620.82028, Fri Apr  8 20:11:28 2022
Recv from 127.0.0.1:8095, Data:$GPRMC,121133.00,A,3958.78920,N,11620.82028, Fri Apr  8 20:11:30 2022
Recv from 127.0.0.1:8095, Data:$GPRMC,121134.00,A,3958.78935,N,11620.82030, Fri Apr  8 20:11:31 2022
Recv from 127.0.0.1:8095, Data:$GPRMC,121136.00,A,3958.78950,N,11620.82028, Fri Apr  8 20:11:33 2022
Recv from 127.0.0.1:8095, Data:$GPRMC,121138.00,A,3958.78980,N,11620.82033, Fri Apr  8 20:11:35 2022
Recv from 127.0.0.1:8095, Data:$GPRMC,121140.00,A,3958.78998,N,11620.82039, Fri Apr  8 20:11:37 2022
Recv from 127.0.0.1:8095, Data:$GPRMC,121142.00,A,3958.79006,N,11620.82041, Fri Apr  8 20:11:39 2022
Recv from 127.0.0.1:8095, Data:$GPRMC,121144.00,A,3958.79010,N,11620.82058, Fri Apr  8 20:11:41 2022
Recv from 127.0.0.1:8095, Data:$GPRMC,121146.00,A,3958.79014,N,11620.82073, Fri Apr  8 20:11:43 2022
Recv from 127.0.0.1:8095, Data:$GPRMC,121148.00,A,3958.79019,N,11620.82074, Fri Apr  8 20:11:45 2022
Recv from 127.0.0.1:8095, Data:$GPRMC,121150.00,A,3958.79041,N,11620.82112, Fri Apr  8 20:11:47 2022
Recv from 127.0.0.1:8095, Data:$GPRMC,121152.00,A,3958.79061,N,11620.82134, Fri Apr  8 20:11:49 2022
Recv from 127.0.0.1:8095, Data:$GPRMC,121154.00,A,3958.79055,N,11620.82131, Fri Apr  8 20:11:51 2022
Recv from 127.0.0.1:8095, Data:$GPRMC,121155.00,A,3958.79042,N,11620.82142, Fri Apr  8 20:11:52 2022
Recv from 127.0.0.1:8095, Data:$GPRMC,121157.00,A,3958.79041,N,11620.82158, Fri Apr  8 20:11:54 2022
Recv from 127.0.0.1:8095, Data:$GPRMC,121159.00,A,3958.79039,N,11620.82168, Fri Apr  8 20:11:56 2022
Recv from 127.0.0.1:8095, Data:$GPRMC,121201.00,A,3958.79041,N,11620.82182, Fri Apr  8 20:11:58 2022
Recv from 127.0.0.1:8095, Data:$GPRMC,121203.00,A,3958.79068,N,11620.82194, Fri Apr  8 20:12:00 2022
Recv from 127.0.0.1:8095, Data:$GPRMC,121205.00,A,3958.79061,N,11620.82205, Fri Apr  8 20:12:02 2022
Recv from 127.0.0.1:8095, Data:$GPRMC,121207.00,A,3958.79038,N,11620.82199, Fri Apr  8 20:12:04 2022
Recv from 127.0.0.1:8095, Data:$GPRMC,121209.00,A,3958.79063,N,116, Fri Apr  8 20:12:06 2022
Recv from 127.0.0.1:8230, Data:$GPRMC,121250.00,A,3958.78890,N,11620.83036, Fri Apr  8 20:12:47 2022
Recv from 127.0.0.1:8230, Data:$GPRMC,121252.00,A,3958.78891,N,11620.83095, Fri Apr  8 20:12:49 2022
Recv from 127.0.0.1:8230, Data:$GPRMC,121254.00,A,3958.78915,N,11620.83117, Fri Apr  8 20:12:51 2022
Recv from 127.0.0.1:8230, Data:$GPRMC,121255.00,A,3958.78933,N,11620.83121, Fri Apr  8 20:12:52 2022
Recv from 127.0.0.1:8230, Data:$GPRMC,121257.00,A,3958.78961,N,11620.83102, Fri Apr  8 20:12:54 2022
Recv from 127.0.0.1:8230, Data:$GPRMC,121259.00,A,3958.78950,N,11620.83071, Fri Apr  8 20:12:56 2022
Recv from 127.0.0.1:8230, Data:$GPRMC,121301.00,A,3958.78947,N,11620.83080, Fri Apr  8 20:12:58 2022
Recv from 127.0.0.1:8230, Data:$GPRMC,121303.00,A,3958.79023,N,11620.82946, Fri Apr  8 20:13:00 2022
Recv from 127.0.0.1:8230, Data:$GPRMC,121305.00,A,3958.79095,N,11620.82824, Fri Apr  8 20:13:02 2022
Recv from 127.0.0.1:8230, Data:$GPRMC,121307.00,A,3958.79120,N,11620.82757, Fri Apr  8 20:13:04 2022
Recv from 127.0.0.1:8230, Data:$GPRMC,121309.00,A,3958.79175,N,11620.82733, Fri Apr  8 20:13:06 2022
Recv from 127.0.0.1:8230, Data:$GPRMC,121311.00,A,3958.79201,N,11620.82727, Fri Apr  8 20:13:08 2022
Recv from 127.0.0.1:8230, Data:$GPRMC,121313.00,A,3958.79229,N,11620.82720, Fri Apr  8 20:13:10 2022
Recv from 127.0.0.1:8230, Data:$GPRMC,121315.00,A,3958.79220,N,11620.82700, Fri Apr  8 20:13:12 2022
Recv from 127.0.0.1:8230, Data:$GPRMC,121317.00,A,3958.79199,N,11620.82742, Fri Apr  8 20:13:13 2022
Recv from 127.0.0.1:8230, Data:$GPRMC,121318.00,A,3958.79188,N,11620.82731, Fri Apr  8 20:13:15 2022
Recv from 127.0.0.1:8230, Data:$GPRMC,121320.00,A,3958.79156,N,11620.82744, Fri Apr  8 20:13:17 2022
Recv from 127.0.0.1:8230, Data:$GPRMC,121322.00,A,3958.79061,N,11620.82799, Fri Apr  8 20:13:19 2022
Recv from 127.0.0.1:8230, Data:$GPRMC,121324.00,A,3958.79031,N,11620.82807, Fri Apr  8 20:13:21 2022
Recv from 127.0.0.1:8230, Data:$GPRMC,121326.00,A,3958.79002,N,11620.82850, Fri Apr  8 20:13:23 2022
Recv from 127.0.0.1:8230, Data:$GPRMC,121328.00,A,3958.79018,N,11620.82841, Fri Apr  8 20:13:25 2022
Recv from 127.0.0.1:8230, Data:$GPRMC,121330.00,A,3958.79038,N,11620.82831, Fri Apr  8 20:13:27 2022
Recv from 127.0.0.1:8230, Data:$GPRMC,121332.00,A,3958.79035,N,11620.82871, Fri Apr  8 20:13:29 2022
Recv from 127.0.0.1:8230, Data:$GPRMC,121334.00,A,3958.79025,N,116, Fri Apr  8 20:13:31 2022
Recv from 127.0.0.1:8362, Data:$GPRMC,121412.00,A,3958.77829,N,11620.83431, Fri Apr  8 20:14:12 2022
Recv from 127.0.0.1:8362, Data:$GPRMC,121413.00,A,3958.77822,N,11620.83636, Fri Apr  8 20:14:13 2022
Recv from 127.0.0.1:8362, Data:$GPRMC,121415.00,A,3958.77818,N,11620.83739, Fri Apr  8 20:14:15 2022
Recv from 127.0.0.1:8362, Data:$GPRMC,121417.00,A,3958.77811,N,11620.83874, Fri Apr  8 20:14:17 2022
Recv from 127.0.0.1:8362, Data:$GPRMC,121419.00,A,3958.77794,N,11620.83996, Fri Apr  8 20:14:19 2022
Recv from 127.0.0.1:8362, Data:$GPRMC,121421.00,A,3958.77776,N,11620.84060, Fri Apr  8 20:14:21 2022
Recv from 127.0.0.1:8362, Data:$GPRMC,121423.00,A,3958.77766,N,11620.84099, Fri Apr  8 20:14:23 2022
Recv from 127.0.0.1:8362, Data:$GPRMC,121425.00,A,3958.77777,N,11620.84134, Fri Apr  8 20:14:25 2022
Recv from 127.0.0.1:8362, Data:$GPRMC,121427.00,A,3958.77788,N,11620.84335, Fri Apr  8 20:14:27 2022
Recv from 127.0.0.1:8362, Data:$GPRMC,121429.00,A,3958.77795,N,11620.84444, Fri Apr  8 20:14:29 2022
Recv from 127.0.0.1:8362, Data:$GPRMC,121431.00,A,3958.77807,N,11620.84409, Fri Apr  8 20:14:31 2022
Recv from 127.0.0.1:8362, Data:$GPRMC,121433.00,A,3958.77819,N,11620.84409, Fri Apr  8 20:14:33 2022
Recv from 127.0.0.1:8362, Data:$GPRMC,121435.00,A,3958.77828,N,11620.84372, Fri Apr  8 20:14:34 2022
Recv from 127.0.0.1:8362, Data:$GPRMC,121436.00,A,3958.77828,N,11620.84352, Fri Apr  8 20:14:36 2022
Recv from 127.0.0.1:8362, Data:$GPRMC,121438.00,A,3958.77837,N,11620.84310, Fri Apr  8 20:14:38 2022
Recv from 127.0.0.1:8362, Data:$GPRMC,121440.00,A,3958.77852,N,11620.84370, Fri Apr  8 20:14:40 2022
Recv from 127.0.0.1:8362, Data:$GPRMC,121442.00,A,3958.77867,N,11620.84443, Fri Apr  8 20:14:42 2022
Recv from 127.0.0.1:8362, Data:$GPRMC,121444.00,A,3958.77877,N,11620.84494, Fri Apr  8 20:14:44 2022
Recv from 127.0.0.1:8362, Data:$GPRMC,121446.00,A,3958.77896,N,11620.84519, Fri Apr  8 20:14:46 2022
Recv from 127.0.0.1:8362, Data:$GPRMC,121448.00,A,3958.77903,N,11620.84538, Fri Apr  8 20:14:48 2022
Recv from 127.0.0.1:8362, Data:$GPRMC,121450.00,A,3958.77904,N,11620.84469, Fri Apr  8 20:14:50 2022
Recv from 127.0.0.1:8362, Data:$GPRMC,121452.00,A,3958.77907,N,11620.84398, Fri Apr  8 20:14:52 2022
Recv from 127.0.0.1:8362, Data:$GPRMC,121454.00,A,3958.77916,N,11620.84311, Fri Apr  8 20:14:54 2022
Recv from 127.0.0.1:8362, Data:$GPRMC,121456.00,A,3958.77914,N,116, Fri Apr  8 20:14:56 2022
Recv from 127.0.0.1:8499, Data:$GPRMC,121536.00,A,3958.77597,N,11620.86172, Fri Apr  8 20:15:36 2022
Recv from 127.0.0.1:8499, Data:$GPRMC,121538.00,A,3958.77586,N,11620.86296, Fri Apr  8 20:15:38 2022
Recv from 127.0.0.1:8499, Data:$GPRMC,121540.00,A,3958.77563,N,11620.86327, Fri Apr  8 20:15:40 2022
Recv from 127.0.0.1:8499, Data:$GPRMC,121542.00,A,3958.77556,N,11620.86412, Fri Apr  8 20:15:42 2022
Recv from 127.0.0.1:8499, Data:$GPRMC,121544.00,A,3958.77554,N,11620.86432, Fri Apr  8 20:15:44 2022
Recv from 127.0.0.1:8499, Data:$GPRMC,121546.00,A,3958.77550,N,11620.86297, Fri Apr  8 20:15:46 2022
Recv from 127.0.0.1:8499, Data:$GPRMC,121548.00,A,3958.77550,N,11620.86151, Fri Apr  8 20:15:48 2022
Recv from 127.0.0.1:8499, Data:$GPRMC,121550.00,A,3958.77550,N,11620.86081, Fri Apr  8 20:15:50 2022
Recv from 127.0.0.1:8499, Data:$GPRMC,121552.00,A,3958.77553,N,11620.85993, Fri Apr  8 20:15:52 2022
Recv from 127.0.0.1:8499, Data:$GPRMC,121554.00,A,3958.77553,N,11620.85850, Fri Apr  8 20:15:54 2022
Recv from 127.0.0.1:8499, Data:$GPRMC,121556.00,A,3958.77553,N,11620.85712, Fri Apr  8 20:15:56 2022
Recv from 127.0.0.1:8499, Data:$GPRMC,121557.00,A,3958.77550,N,11620.85567, Fri Apr  8 20:15:57 2022
Recv from 127.0.0.1:8499, Data:$GPRMC,121559.00,A,3958.77554,N,11620.85509, Fri Apr  8 20:15:59 2022
Recv from 127.0.0.1:8499, Data:$GPRMC,121601.00,A,3958.77555,N,11620.85393, Fri Apr  8 20:16:01 2022
Recv from 127.0.0.1:8499, Data:$GPRMC,121603.00,A,3958.77558,N,11620.85286, Fri Apr  8 20:16:03 2022
Recv from 127.0.0.1:8499, Data:$GPRMC,121605.00,A,3958.77545,N,11620.85232, Fri Apr  8 20:16:05 2022
Recv from 127.0.0.1:8499, Data:$GPRMC,121607.00,A,3958.77538,N,11620.85159, Fri Apr  8 20:16:07 2022
Recv from 127.0.0.1:8499, Data:$GPRMC,121609.00,A,3958.77540,N,11620.85080, Fri Apr  8 20:16:09 2022
Recv from 127.0.0.1:8499, Data:$GPRMC,121611.00,A,3958.77546,N,11620.84974, Fri Apr  8 20:16:11 2022
Recv from 127.0.0.1:8499, Data:$GPRMC,121613.00,A,3958.77544,N,11620.84894, Fri Apr  8 20:16:13 2022
Recv from 127.0.0.1:8499, Data:$GPRMC,121615.00,A,3958.77530,N,11620.84874, Fri Apr  8 20:16:15 2022
Recv from 127.0.0.1:8499, Data:$GPRMC,121617.00,A,3958.77516,N,11620.84865, Fri Apr  8 20:16:17 2022
Recv from 127.0.0.1:8499, Data:$GPRMC,121619.00,A,3958.77512,N,11620.84822, Fri Apr  8 20:16:18 2022
Recv from 127.0.0.1:8499, Data:$GPRMC,121620.00,A,3958.77510,N,116, Fri Apr  8 20:16:20 2022
Recv from 127.0.0.1:8636, Data:$GPRMC,121701.00,A,3958.77878,N,11620.83799, Fri Apr  8 20:17:01 2022
Recv from 127.0.0.1:8636, Data:$GPRMC,121703.00,A,3958.77904,N,11620.83692, Fri Apr  8 20:17:03 2022
Recv from 127.0.0.1:8636, Data:$GPRMC,121705.00,A,3958.77928,N,11620.83639, Fri Apr  8 20:17:05 2022
Recv from 127.0.0.1:8636, Data:$GPRMC,121707.00,A,3958.77913,N,11620.83695, Fri Apr  8 20:17:07 2022
Recv from 127.0.0.1:8636, Data:$GPRMC,121709.00,A,3958.77921,N,11620.83635, Fri Apr  8 20:17:09 2022
Recv from 127.0.0.1:8636, Data:$GPRMC,121711.00,A,3958.77931,N,11620.83608, Fri Apr  8 20:17:11 2022
Recv from 127.0.0.1:8636, Data:$GPRMC,121713.00,A,3958.77975,N,11620.83488, Fri Apr  8 20:17:13 2022
Recv from 127.0.0.1:8636, Data:$GPRMC,121715.00,A,3958.77999,N,11620.83485, Fri Apr  8 20:17:15 2022
Recv from 127.0.0.1:8636, Data:$GPRMC,121717.00,A,3958.78035,N,11620.83369, Fri Apr  8 20:17:17 2022
Recv from 127.0.0.1:8636, Data:$GPRMC,121718.00,A,3958.78089,N,11620.83135, Fri Apr  8 20:17:18 2022
Recv from 127.0.0.1:8636, Data:$GPRMC,121720.00,A,3958.78110,N,11620.83058, Fri Apr  8 20:17:20 2022
Recv from 127.0.0.1:8636, Data:$GPRMC,121722.00,A,3958.78154,N,11620.82858, Fri Apr  8 20:17:22 2022
Recv from 127.0.0.1:8636, Data:$GPRMC,121724.00,A,3958.78179,N,11620.82734, Fri Apr  8 20:17:24 2022
Recv from 127.0.0.1:8636, Data:$GPRMC,121726.00,A,3958.78194,N,11620.82589, Fri Apr  8 20:17:26 2022
Recv from 127.0.0.1:8636, Data:$GPRMC,121728.00,A,3958.78194,N,11620.82556, Fri Apr  8 20:17:28 2022
Recv from 127.0.0.1:8636, Data:$GPRMC,121730.00,A,3958.78185,N,11620.82593, Fri Apr  8 20:17:30 2022
Recv from 127.0.0.1:8636, Data:$GPRMC,121732.00,A,3958.78178,N,11620.82548, Fri Apr  8 20:17:32 2022
Recv from 127.0.0.1:8636, Data:$GPRMC,121734.00,A,3958.78151,N,11620.82586, Fri Apr  8 20:17:34 2022
Recv from 127.0.0.1:8636, Data:$GPRMC,121736.00,A,3958.78116,N,11620.82599, Fri Apr  8 20:17:36 2022
Recv from 127.0.0.1:8636, Data:$GPRMC,121738.00,A,3958.78088,N,11620.82557, Fri Apr  8 20:17:38 2022
Recv from 127.0.0.1:8636, Data:$GPRMC,121740.00,A,3958.78057,N,11620.82500, Fri Apr  8 20:17:40 2022
Recv from 127.0.0.1:8636, Data:$GPRMC,121741.00,A,3958.78046,N,11620.82479, Fri Apr  8 20:17:41 2022
Recv from 127.0.0.1:8636, Data:$GPRMC,121743.00,A,3958.78017,N,11620.82523, Fri Apr  8 20:17:43 2022
Recv from 127.0.0.1:8636, Data:$GPRMC,121745.00,A,3958.77995,N,116, Fri Apr  8 20:17:45 2022
Recv from 127.0.0.1:6091, Data:$GPRMC,121826.00,A,3958.77846,N,11620.82344, Fri Apr  8 20:18:26 2022
Recv from 127.0.0.1:6091, Data:$GPRMC,121828.00,A,3958.77829,N,11620.82490, Fri Apr  8 20:18:28 2022
Recv from 127.0.0.1:6091, Data:$GPRMC,121830.00,A,3958.77795,N,11620.82641, Fri Apr  8 20:18:30 2022
Recv from 127.0.0.1:6091, Data:$GPRMC,121832.00,A,3958.77749,N,11620.82869, Fri Apr  8 20:18:32 2022
Recv from 127.0.0.1:6091, Data:$GPRMC,121834.00,A,3958.77703,N,11620.83057, Fri Apr  8 20:18:34 2022
Recv from 127.0.0.1:6091, Data:$GPRMC,121836.00,A,3958.77673,N,11620.83195, Fri Apr  8 20:18:36 2022
Recv from 127.0.0.1:6091, Data:$GPRMC,121838.00,A,3958.77638,N,11620.83339, Fri Apr  8 20:18:38 2022
Recv from 127.0.0.1:6091, Data:$GPRMC,121840.00,A,3958.77618,N,11620.83398, Fri Apr  8 20:18:39 2022
Recv from 127.0.0.1:6091, Data:$GPRMC,121841.00,A,3958.77608,N,11620.83428, Fri Apr  8 20:18:41 2022
Recv from 127.0.0.1:6091, Data:$GPRMC,121843.00,A,3958.77601,N,11620.83436, Fri Apr  8 20:18:43 2022
Recv from 127.0.0.1:6091, Data:$GPRMC,121845.00,A,3958.77593,N,11620.83437, Fri Apr  8 20:18:45 2022
Recv from 127.0.0.1:6091, Data:$GPRMC,121847.00,A,3958.77587,N,11620.83429, Fri Apr  8 20:18:47 2022
Recv from 127.0.0.1:6091, Data:$GPRMC,121849.00,A,3958.77589,N,11620.83408, Fri Apr  8 20:18:49 2022
Recv from 127.0.0.1:6091, Data:$GPRMC,121851.00,A,3958.77596,N,11620.83398, Fri Apr  8 20:18:51 2022
Recv from 127.0.0.1:6091, Data:$GPRMC,121853.00,A,3958.77609,N,11620.83385, Fri Apr  8 20:18:53 2022
Recv from 127.0.0.1:6091, Data:$GPRMC,121855.00,A,3958.77621,N,11620.83372, Fri Apr  8 20:18:55 2022
Recv from 127.0.0.1:6091, Data:$GPRMC,121857.00,A,3958.77631,N,11620.83415, Fri Apr  8 20:18:57 2022
Recv from 127.0.0.1:6091, Data:$GPRMC,121859.00,A,3958.77643,N,11620.83448, Fri Apr  8 20:18:59 2022
Recv from 127.0.0.1:6091, Data:$GPRMC,121901.00,A,3958.77655,N,11620.83453, Fri Apr  8 20:19:01 2022
Recv from 127.0.0.1:6091, Data:$GPRMC,121902.00,A,3958.77663,N,11620.83391, Fri Apr  8 20:19:02 2022
Recv from 127.0.0.1:6091, Data:$GPRMC,121904.00,A,3958.77681,N,11620.83341, Fri Apr  8 20:19:04 2022
Recv from 127.0.0.1:6091, Data:$GPRMC,121906.00,A,3958.77696,N,11620.83254, Fri Apr  8 20:19:06 2022
Recv from 127.0.0.1:6091, Data:$GPRMC,121908.00,A,3958.77707,N,11620.83180, Fri Apr  8 20:19:08 2022
Recv from 127.0.0.1:6091, Data:$GPRMC,121910.00,A,3958.77719,N,116, Fri Apr  8 20:19:10 2022
Recv from 127.0.0.1:6208, Data:$GPRMC,121951.00,A,3958.78031,N,11620.83144, Fri Apr  8 20:19:51 2022
Recv from 127.0.0.1:6208, Data:$GPRMC,121953.00,A,3958.78051,N,11620.83114, Fri Apr  8 20:19:53 2022
Recv from 127.0.0.1:6208, Data:$GPRMC,121955.00,A,3958.78072,N,11620.83083, Fri Apr  8 20:19:55 2022
Recv from 127.0.0.1:6208, Data:$GPRMC,121957.00,A,3958.78089,N,11620.83051, Fri Apr  8 20:19:57 2022
Recv from 127.0.0.1:6208, Data:$GPRMC,121959.00,A,3958.78106,N,11620.83012, Fri Apr  8 20:19:59 2022
Recv from 127.0.0.1:6208, Data:$GPRMC,122001.00,A,3958.78119,N,11620.82984, Fri Apr  8 20:20:01 2022
Recv from 127.0.0.1:6208, Data:$GPRMC,122002.00,A,3958.78124,N,11620.82973, Fri Apr  8 20:20:02 2022
Recv from 127.0.0.1:6208, Data:$GPRMC,122004.00,A,3958.78132,N,11620.82947, Fri Apr  8 20:20:04 2022
Recv from 127.0.0.1:6208, Data:$GPRMC,122006.00,A,3958.78135,N,11620.82933, Fri Apr  8 20:20:06 2022
Recv from 127.0.0.1:6208, Data:$GPRMC,122008.00,A,3958.78133,N,11620.82946, Fri Apr  8 20:20:08 2022
Recv from 127.0.0.1:6208, Data:$GPRMC,122010.00,A,3958.78121,N,11620.82993, Fri Apr  8 20:20:10 2022
Recv from 127.0.0.1:6208, Data:$GPRMC,122012.00,A,3958.78107,N,11620.83023, Fri Apr  8 20:20:12 2022
Recv from 127.0.0.1:6208, Data:$GPRMC,122014.00,A,3958.78090,N,11620.83068, Fri Apr  8 20:20:14 2022
Recv from 127.0.0.1:6208, Data:$GPRMC,122016.00,A,3958.78071,N,11620.83118, Fri Apr  8 20:20:16 2022
Recv from 127.0.0.1:6208, Data:$GPRMC,122018.00,A,3958.78053,N,11620.83167, Fri Apr  8 20:20:18 2022
Recv from 127.0.0.1:6208, Data:$GPRMC,122020.00,A,3958.78038,N,11620.83206, Fri Apr  8 20:20:20 2022
Recv from 127.0.0.1:6208, Data:$GPRMC,122022.00,A,3958.78026,N,11620.83238, Fri Apr  8 20:20:22 2022
Recv from 127.0.0.1:6208, Data:$GPRMC,122024.00,A,3958.78013,N,11620.83261, Fri Apr  8 20:20:23 2022
Recv from 127.0.0.1:6208, Data:$GPRMC,122025.00,A,3958.78007,N,11620.83274, Fri Apr  8 20:20:25 2022
Recv from 127.0.0.1:6208, Data:$GPRMC,122027.00,A,3958.77996,N,11620.83299, Fri Apr  8 20:20:27 2022
Recv from 127.0.0.1:6208, Data:$GPRMC,122029.00,A,3958.77987,N,11620.83307, Fri Apr  8 20:20:29 2022
Recv from 127.0.0.1:6208, Data:$GPRMC,122031.00,A,3958.77979,N,11620.83297, Fri Apr  8 20:20:31 2022
Recv from 127.0.0.1:6208, Data:$GPRMC,122033.00,A,3958.77977,N,11620.83261, Fri Apr  8 20:20:33 2022
Recv from 127.0.0.1:6208, Data:$GPRMC,122035.00,A,3958.77971,N,116, Fri Apr  8 20:20:35 2022
Recv from 127.0.0.1:6353, Data:$GPRMC,122116.00,A,3958.77972,N,11620.83083, Fri Apr  8 20:21:16 2022
Recv from 127.0.0.1:6353, Data:$GPRMC,122118.00,A,3958.77996,N,11620.83098, Fri Apr  8 20:21:18 2022
Recv from 127.0.0.1:6353, Data:$GPRMC,122120.00,A,3958.78024,N,11620.83095, Fri Apr  8 20:21:20 2022
Recv from 127.0.0.1:6353, Data:$GPRMC,122122.00,A,3958.78049,N,11620.83100, Fri Apr  8 20:21:22 2022
Recv from 127.0.0.1:6353, Data:$GPRMC,122123.00,A,3958.78061,N,11620.83102, Fri Apr  8 20:21:23 2022
Recv from 127.0.0.1:6353, Data:$GPRMC,122125.00,A,3958.78083,N,11620.83098, Fri Apr  8 20:21:25 2022
Recv from 127.0.0.1:6353, Data:$GPRMC,122127.00,A,3958.78103,N,11620.83087, Fri Apr  8 20:21:27 2022
Recv from 127.0.0.1:6353, Data:$GPRMC,122129.00,A,3958.78110,N,11620.83105, Fri Apr  8 20:21:29 2022
Recv from 127.0.0.1:6353, Data:$GPRMC,122131.00,A,3958.78114,N,11620.83126, Fri Apr  8 20:21:31 2022
Recv from 127.0.0.1:6353, Data:$GPRMC,122133.00,A,3958.78117,N,11620.83141, Fri Apr  8 20:21:33 2022
Recv from 127.0.0.1:6353, Data:$GPRMC,122135.00,A,3958.78118,N,11620.83138, Fri Apr  8 20:21:35 2022
Recv from 127.0.0.1:6353, Data:$GPRMC,122137.00,A,3958.78090,N,11620.83250, Fri Apr  8 20:21:37 2022
Recv from 127.0.0.1:6353, Data:$GPRMC,122139.00,A,3958.78078,N,11620.83263, Fri Apr  8 20:21:39 2022
Recv from 127.0.0.1:6353, Data:$GPRMC,122141.00,A,3958.78070,N,11620.83276, Fri Apr  8 20:21:41 2022
Recv from 127.0.0.1:6353, Data:$GPRMC,122143.00,A,3958.78059,N,11620.83281, Fri Apr  8 20:21:43 2022
Recv from 127.0.0.1:6353, Data:$GPRMC,122145.00,A,3958.78043,N,11620.83318, Fri Apr  8 20:21:44 2022
Recv from 127.0.0.1:6353, Data:$GPRMC,122146.00,A,3958.78035,N,11620.83314, Fri Apr  8 20:21:46 2022
Recv from 127.0.0.1:6353, Data:$GPRMC,122148.00,A,3958.78018,N,11620.83300, Fri Apr  8 20:21:48 2022
Recv from 127.0.0.1:6353, Data:$GPRMC,122150.00,A,3958.78001,N,11620.83288, Fri Apr  8 20:21:50 2022
Recv from 127.0.0.1:6353, Data:$GPRMC,122152.00,A,3958.77983,N,11620.83275, Fri Apr  8 20:21:52 2022
Recv from 127.0.0.1:6353, Data:$GPRMC,122154.00,A,3958.77964,N,11620.83253, Fri Apr  8 20:21:54 2022
Recv from 127.0.0.1:6353, Data:$GPRMC,122156.00,A,3958.77953,N,11620.83290, Fri Apr  8 20:21:56 2022
Recv from 127.0.0.1:6353, Data:$GPRMC,122158.00,A,3958.77934,N,11620.83287, Fri Apr  8 20:21:58 2022
Recv from 127.0.0.1:6353, Data:$GPRMC,122200.00,A,3958.77912,N,116, Fri Apr  8 20:22:00 2022
Recv from 127.0.0.1:6477, Data:$GPRMC,122241.00,A,3958.76678,N,11620.83364, Fri Apr  8 20:22:41 2022
Recv from 127.0.0.1:6477, Data:$GPRMC,122243.00,A,3958.76634,N,11620.83318, Fri Apr  8 20:22:43 2022
Recv from 127.0.0.1:6477, Data:$GPRMC,122244.00,A,3958.76603,N,11620.83330, Fri Apr  8 20:22:44 2022
Recv from 127.0.0.1:6477, Data:$GPRMC,122246.00,A,3958.76589,N,11620.83334, Fri Apr  8 20:22:46 2022
Recv from 127.0.0.1:6477, Data:$GPRMC,122248.00,A,3958.76568,N,11620.83330, Fri Apr  8 20:22:48 2022
Recv from 127.0.0.1:6477, Data:$GPRMC,122250.00,A,3958.76559,N,11620.83307, Fri Apr  8 20:22:50 2022
Recv from 127.0.0.1:6477, Data:$GPRMC,122252.00,A,3958.76525,N,11620.83388, Fri Apr  8 20:22:52 2022
Recv from 127.0.0.1:6477, Data:$GPRMC,122254.00,A,3958.76498,N,11620.83419, Fri Apr  8 20:22:54 2022
Recv from 127.0.0.1:6477, Data:$GPRMC,122256.00,A,3958.76501,N,11620.83379, Fri Apr  8 20:22:56 2022
Recv from 127.0.0.1:6477, Data:$GPRMC,122258.00,A,3958.76518,N,11620.83337, Fri Apr  8 20:22:58 2022
Recv from 127.0.0.1:6477, Data:$GPRMC,122300.00,A,3958.76537,N,11620.83321, Fri Apr  8 20:23:00 2022
Recv from 127.0.0.1:6477, Data:$GPRMC,122302.00,A,3958.76559,N,11620.83292, Fri Apr  8 20:23:02 2022
Recv from 127.0.0.1:6477, Data:$GPRMC,122304.00,A,3958.76574,N,11620.83305, Fri Apr  8 20:23:04 2022
Recv from 127.0.0.1:6477, Data:$GPRMC,122306.00,A,3958.76588,N,11620.83281, Fri Apr  8 20:23:06 2022
Recv from 127.0.0.1:6477, Data:$GPRMC,122307.00,A,3958.76596,N,11620.83270, Fri Apr  8 20:23:07 2022
Recv from 127.0.0.1:6477, Data:$GPRMC,122309.00,A,3958.76611,N,11620.83253, Fri Apr  8 20:23:09 2022
Recv from 127.0.0.1:6477, Data:$GPRMC,122311.00,A,3958.76625,N,11620.83212, Fri Apr  8 20:23:11 2022
Recv from 127.0.0.1:6477, Data:$GPRMC,122313.00,A,3958.76639,N,11620.83180, Fri Apr  8 20:23:13 2022
Recv from 127.0.0.1:6477, Data:$GPRMC,122315.00,A,3958.76654,N,11620.83156, Fri Apr  8 20:23:15 2022
Recv from 127.0.0.1:6477, Data:$GPRMC,122317.00,A,3958.76665,N,11620.83145, Fri Apr  8 20:23:17 2022
Recv from 127.0.0.1:6477, Data:$GPRMC,122319.00,A,3958.76682,N,11620.83141, Fri Apr  8 20:23:19 2022
Recv from 127.0.0.1:6477, Data:$GPRMC,122321.00,A,3958.76696,N,11620.83150, Fri Apr  8 20:23:21 2022
Recv from 127.0.0.1:6477, Data:$GPRMC,122323.00,A,3958.76712,N,11620.83166, Fri Apr  8 20:23:23 2022
Recv from 127.0.0.1:6477, Data:$GPRMC,122325.00,A,3958.76728,N,116, Fri Apr  8 20:23:25 2022
Recv from 127.0.0.1:6612, Data:$GPRMC,122406.00,A,3958.76775,N,11620.82882, Fri Apr  8 20:24:05 2022
Recv from 127.0.0.1:6612, Data:$GPRMC,122407.00,A,3958.76771,N,11620.82892, Fri Apr  8 20:24:07 2022
Recv from 127.0.0.1:6612, Data:$GPRMC,122409.00,A,3958.76764,N,11620.82939, Fri Apr  8 20:24:09 2022
Recv from 127.0.0.1:6612, Data:$GPRMC,122411.00,A,3958.76765,N,11620.82953, Fri Apr  8 20:24:11 2022
Recv from 127.0.0.1:6612, Data:$GPRMC,122413.00,A,3958.76767,N,11620.82959, Fri Apr  8 20:24:13 2022
Recv from 127.0.0.1:6612, Data:$GPRMC,122415.00,A,3958.76759,N,11620.82968, Fri Apr  8 20:24:15 2022
Recv from 127.0.0.1:6612, Data:$GPRMC,122417.00,A,3958.76758,N,11620.82954, Fri Apr  8 20:24:17 2022
Recv from 127.0.0.1:6612, Data:$GPRMC,122419.00,A,3958.76755,N,11620.82961, Fri Apr  8 20:24:19 2022
Recv from 127.0.0.1:6612, Data:$GPRMC,122421.00,A,3958.76752,N,11620.83003, Fri Apr  8 20:24:21 2022
Recv from 127.0.0.1:6612, Data:$GPRMC,122423.00,A,3958.76747,N,11620.83071, Fri Apr  8 20:24:23 2022
Recv from 127.0.0.1:6612, Data:$GPRMC,122425.00,A,3958.76746,N,11620.83119, Fri Apr  8 20:24:25 2022
Recv from 127.0.0.1:6612, Data:$GPRMC,122427.00,A,3958.76746,N,11620.83152, Fri Apr  8 20:24:27 2022
Recv from 127.0.0.1:6612, Data:$GPRMC,122428.00,A,3958.76745,N,11620.83187, Fri Apr  8 20:24:28 2022
Recv from 127.0.0.1:6612, Data:$GPRMC,122430.00,A,3958.76747,N,11620.83191, Fri Apr  8 20:24:30 2022
Recv from 127.0.0.1:6612, Data:$GPRMC,122432.00,A,3958.76743,N,11620.83216, Fri Apr  8 20:24:32 2022
Recv from 127.0.0.1:6612, Data:$GPRMC,122434.00,A,3958.76730,N,11620.83261, Fri Apr  8 20:24:34 2022
Recv from 127.0.0.1:6612, Data:$GPRMC,122436.00,A,3958.76717,N,11620.83333, Fri Apr  8 20:24:36 2022
Recv from 127.0.0.1:6612, Data:$GPRMC,122438.00,A,3958.76699,N,11620.83389, Fri Apr  8 20:24:38 2022
Recv from 127.0.0.1:6612, Data:$GPRMC,122440.00,A,3958.76682,N,11620.83430, Fri Apr  8 20:24:40 2022
Recv from 127.0.0.1:6612, Data:$GPRMC,122442.00,A,3958.76663,N,11620.83495, Fri Apr  8 20:24:42 2022
Recv from 127.0.0.1:6612, Data:$GPRMC,122444.00,A,3958.76640,N,11620.83554, Fri Apr  8 20:24:44 2022
Recv from 127.0.0.1:6612, Data:$GPRMC,122446.00,A,3958.76626,N,11620.83604, Fri Apr  8 20:24:46 2022
Recv from 127.0.0.1:6612, Data:$GPRMC,122448.00,A,3958.76612,N,11620.83645, Fri Apr  8 20:24:48 2022
Recv from 127.0.0.1:6612, Data:$GPRMC,122450.00,A,3958.76598,N,116, Fri Apr  8 20:24:50 2022
Recv from 127.0.0.1:1306, Data:$GPRMC,,V,,,,,,,,,,N*53
$GPRMC,,V,,,,,,,,,, Sat Apr  9 09:37:15 2022
Recv from 127.0.0.1:1306, Data:$GPRMC,,V,,,,,,,,,,N*53
$GPRMC,,V,,,,,,,,,, Sat Apr  9 09:37:17 2022
Recv from 127.0.0.1:1306, Data:$GPRMC,,V,,,,,,,,,,N*53
$GPRMC,,V,,,,,,,,,, Sat Apr  9 09:37:19 2022
Recv from 127.0.0.1:1306, Data:$GPRMC,,V,,,,,,,,,,N*53
$GPRMC,,V,,,,,,,,,, Sat Apr  9 09:37:21 2022
Recv from 127.0.0.1:1306, Data:$GPRMC,,V,,,,,,,,,,N*53
$GPRMC,,V,,,,,,,,,, Sat Apr  9 09:37:23 2022
Recv from 127.0.0.1:1306, Data:$GPRMC,,V,,,,,,,,,,N*53
$GPRMC,,V,,,,,,,,,, Sat Apr  9 09:37:25 2022
Recv from 127.0.0.1:1306, Data:$GPRMC,,V,,,,,,,,,,N*53
$GPRMC,,V,,,,,,,,,, Sat Apr  9 09:37:26 2022
Recv from 127.0.0.1:1306, Data:$GPRMC,,V,,,,,,,,,,N*53
$GPRMC,,V,,,,,,,,,, Sat Apr  9 09:37:28 2022
Recv from 127.0.0.1:1306, Data:$GPRMC,,V,,,,,,,,,,N*53
$GPRMC,,V,,,,,,,,,, Sat Apr  9 09:37:30 2022
Recv from 127.0.0.1:1306, Data:$GPRMC,,V,,,,,,,,,,N*53
$GPRMC,,V,,,,,,,,,, Sat Apr  9 09:37:32 2022
Recv from 127.0.0.1:1306, Data:$GPRMC,,V,,,,,,,,,,N*53
$GPRMC,,V,,,,,,,,,, Sat Apr  9 09:37:34 2022
Recv from 127.0.0.1:1306, Data:$GPRMC,,V,,,,,,,,,,N*53
$GPRMC,,V,,,,,,,,,, Sat Apr  9 09:37:36 2022
Recv from 127.0.0.1:1306, Data:$GPRMC,,V,,,,,,,,,,N*53
$GPRMC,,V,,,,,,,,,, Sat Apr  9 09:37:38 2022
Recv from 127.0.0.1:1306, Data:$GPRMC,,V,,,,,,,,,,N*53
$GPRMC,,V,,,,,,,,,, Sat Apr  9 09:37:40 2022
Recv from 127.0.0.1:1306, Data:$GPRMC,,V,,,,,,,,,,N*53
$GPRMC,,V,,,,,,,,,, Sat Apr  9 09:37:42 2022
Recv from 127.0.0.1:1306, Data:$GPRMC,,V,,,,,,,,,,N*53
$GPRMC,,V,,,,,,,,,, Sat Apr  9 09:37:44 2022
Recv from 127.0.0.1:1306, Data:$GPRMC,,V,,,,,,,,,,N*53
$GPRMC,,V,,,,,,,,,, Sat Apr  9 09:37:46 2022
Recv from 127.0.0.1:1306, Data:$GPRMC,,V,,,,,,,,,,N*53
$GPRMC,,V,,,,,,,,,, Sat Apr  9 09:37:47 2022
Recv from 127.0.0.1:1306, Data:$GPRMC,,V,,,,,,,,,,N*53
$GPRMC,,V,,,,,,,,,, Sat Apr  9 09:37:49 2022
Recv from 127.0.0.1:1306, Data:$GPRMC,,V,,,,,,,,,,N*53
$GPRMC,,V,,,,,,,,,, Sat Apr  9 09:37:51 2022
Recv from 127.0.0.1:1306, Data:$GPRMC,,V,,,,,,,,,,N*53
$GPRMC,,V,,,,,,,,,, Sat Apr  9 09:37:53 2022
Recv from 127.0.0.1:1306, Data:$GPRMC,,V,,,,,,,,,,N*53
$GPRMC,,V,,,,,,,,,, Sat Apr  9 09:37:55 2022
Recv from 127.0.0.1:1306, Data:$GPRMC,,V,,,,,,,,,,N*53
$GPRMC,,V,,,,,,,,,, Sat Apr  9 09:37:57 2022
Recv from 127.0.0.1:1306, Data:$GPRMC,,V,,,,,,,,,,N*53
$GPRMC,,V,, Sat Apr  9 09:37:59 2022
Recv from 127.0.0.1:1431, Data:$GPRMC,,V,,,,,,,,,,N*53
$GPRMC,,V,,,,,,,,,, Sat Apr  9 09:38:40 2022
Recv from 127.0.0.1:1431, Data:$GPRMC,,V,,,,,,,,,,N*53
$GPRMC,,V,,,,,,,,,, Sat Apr  9 09:38:42 2022
Recv from 127.0.0.1:1431, Data:$GPRMC,,V,,,,,,,,,,N*53
$GPRMC,,V,,,,,,,,,, Sat Apr  9 09:38:44 2022
Recv from 127.0.0.1:1431, Data:$GPRMC,,V,,,,,,,,,,N*53
$GPRMC,,V,,,,,,,,,, Sat Apr  9 09:38:45 2022
Recv from 127.0.0.1:1431, Data:$GPRMC,,V,,,,,,,,,,N*53
$GPRMC,,V,,,,,,,,,, Sat Apr  9 09:38:47 2022
Recv from 127.0.0.1:1431, Data:$GPRMC,,V,,,,,,,,,,N*53
$GPRMC,,V,,,,,,,,,, Sat Apr  9 09:38:49 2022
Recv from 127.0.0.1:1431, Data:$GPRMC,,V,,,,,,,,,,N*53
$GPRMC,,V,,,,,,,,,, Sat Apr  9 09:38:51 2022
Recv from 127.0.0.1:1431, Data:$GPRMC,,V,,,,,,,,,,N*53
$GPRMC,,V,,,,,,,,,, Sat Apr  9 09:38:53 2022
Recv from 127.0.0.1:1431, Data:$GPRMC,,V,,,,,,,,,,N*53
$GPRMC,,V,,,,,,,,,, Sat Apr  9 09:38:55 2022
Recv from 127.0.0.1:1431, Data:$GPRMC,,V,,,,,,,,,,N*53
$GPRMC,,V,,,,,,,,,, Sat Apr  9 09:38:57 2022
Recv from 127.0.0.1:1431, Data:$GPRMC,,V,,,,,,,,,,N*53
$GPRMC,,V,,,,,,,,,, Sat Apr  9 09:38:59 2022
Recv from 127.0.0.1:1431, Data:$GPRMC,,V,,,,,,,,,,N*53
$GPRMC,,V,,,,,,,,,, Sat Apr  9 09:39:01 2022
Recv from 127.0.0.1:1431, Data:$GPRMC,,V,,,,,,,,,,N*53
$GPRMC,,V,,,,,,,,,, Sat Apr  9 09:39:03 2022
Recv from 127.0.0.1:1431, Data:$GPRMC,,V,,,,,,,,,,N*53
$GPRMC,,V,,,,,,,,,, Sat Apr  9 09:39:05 2022
Recv from 127.0.0.1:1431, Data:$GPRMC,,V,,,,,,,,,,N*53
$GPRMC,,V,,,,,,,,,, Sat Apr  9 09:39:07 2022
Recv from 127.0.0.1:1431, Data:$GPRMC,,V,,,,,,,,,,N*53
$GPRMC,,V,,,,,,,,,, Sat Apr  9 09:39:08 2022
Recv from 127.0.0.1:1431, Data:$GPRMC,,V,,,,,,,,,,N*53
$GPRMC,,V,,,,,,,,,, Sat Apr  9 09:39:10 2022
Recv from 127.0.0.1:1431, Data:$GPRMC,,V,,,,,,,,,,N*53
$GPRMC,,V,,,,,,,,,, Sat Apr  9 09:39:12 2022
Recv from 127.0.0.1:1431, Data:$GPRMC,,V,,,,,,,,,,N*53
$GPRMC,,V,,,,,,,,,, Sat Apr  9 09:39:14 2022
Recv from 127.0.0.1:1431, Data:$GPRMC,,V,,,,,,,,,,N*53
$GPRMC,,V,,,,,,,,,, Sat Apr  9 09:39:16 2022
Recv from 127.0.0.1:1431, Data:$GPRMC,,V,,,,,,,,,,N*53
$GPRMC,,V,,,,,,,,,, Sat Apr  9 09:39:18 2022
Recv from 127.0.0.1:1431, Data:$GPRMC,,V,,,,,,,,,,N*53
$GPRMC,,V,,,,,,,,,, Sat Apr  9 09:39:20 2022
Recv from 127.0.0.1:1431, Data:$GPRMC,,V,,,,,,,,,,N*53
$GPRMC,,V,,,,,,,,,, Sat Apr  9 09:39:22 2022
Recv from 127.0.0.1:1431, Data:$GPRMC,,V,,,,,,,,,,N*53
$GPRMC,,V,, Sat Apr  9 09:39:24 2022
Recv from 127.0.0.1:1573, Data:$GPRMC,,V,,,,,,,,,,N*53
$GPRMC,,V,,,,,,,,,, Sat Apr  9 09:40:05 2022
Recv from 127.0.0.1:1573, Data:$GPRMC,,V,,,,,,,,,,N*53
$GPRMC,,V,,,,,,,,,, Sat Apr  9 09:40:07 2022
Recv from 127.0.0.1:1573, Data:$GPRMC,,V,,,,,,,,,,N*53
$GPRMC,,V,,,,,,,,,, Sat Apr  9 09:40:08 2022
Recv from 127.0.0.1:1573, Data:$GPRMC,,V,,,,,,,,,,N*53
$GPRMC,,V,,,,,,,,,, Sat Apr  9 09:40:10 2022
Recv from 127.0.0.1:1573, Data:$GPRMC,,V,,,,,,,,,,N*53
$GPRMC,,V,,,,,,,,,, Sat Apr  9 09:40:12 2022
Recv from 127.0.0.1:1573, Data:$GPRMC,,V,,,,,,,,,,N*53
$GPRMC,,V,,,,,,,,,, Sat Apr  9 09:40:14 2022
Recv from 127.0.0.1:1573, Data:$GPRMC,,V,,,,,,,,,,N*53
$GPRMC,,V,,,,,,,,,, Sat Apr  9 09:40:16 2022
Recv from 127.0.0.1:1573, Data:$GPRMC,,V,,,,,,,,,,N*53
$GPRMC,,V,,,,,,,,,, Sat Apr  9 09:40:18 2022
Recv from 127.0.0.1:1573, Data:$GPRMC,,V,,,,,,,,,,N*53
$GPRMC,,V,,,,,,,,,, Sat Apr  9 09:40:20 2022
Recv from 127.0.0.1:1573, Data:$GPRMC,,V,,,,,,,,,,N*53
$GPRMC,,V,,,,,,,,,, Sat Apr  9 09:40:22 2022
Recv from 127.0.0.1:1573, Data:$GPRMC,,V,,,,,,,,,,N*53
$GPRMC,,V,,,,,,,,,, Sat Apr  9 09:40:24 2022
Recv from 127.0.0.1:1573, Data:$GPRMC,,V,,,,,,,,,,N*53
$GPRMC,,V,,,,,,,,,, Sat Apr  9 09:40:26 2022
Recv from 127.0.0.1:1573, Data:$GPRMC,,V,,,,,,,,,,N*53
$GPRMC,,V,,,,,,,,,, Sat Apr  9 09:40:28 2022
Recv from 127.0.0.1:1573, Data:$GPRMC,,V,,,,,,,,,,N*53
$GPRMC,,V,,,,,,,,,, Sat Apr  9 09:40:29 2022
Recv from 127.0.0.1:1573, Data:$GPRMC,,V,,,,,,,,,,N*53
$GPRMC,,V,,,,,,,,,, Sat Apr  9 09:40:31 2022
Recv from 127.0.0.1:1573, Data:$GPRMC,,V,,,,,,,,,,N*53
$GPRMC,,V,,,,,,,,,, Sat Apr  9 09:40:33 2022
Recv from 127.0.0.1:1573, Data:$GPRMC,,V,,,,,,,,,,N*53
$GPRMC,,V,,,,,,,,,, Sat Apr  9 09:40:35 2022
Recv from 127.0.0.1:1573, Data:$GPRMC,,V,,,,,,,,,,N*53
$GPRMC,,V,,,,,,,,,, Sat Apr  9 09:40:37 2022
Recv from 127.0.0.1:1573, Data:$GPRMC,,V,,,,,,,,,,N*53
$GPRMC,,V,,,,,,,,,, Sat Apr  9 09:40:39 2022
Recv from 127.0.0.1:1573, Data:$GPRMC,,V,,,,,,,,,,N*53
$GPRMC,,V,,,,,,,,,, Sat Apr  9 09:40:41 2022
Recv from 127.0.0.1:1573, Data:$GPRMC,,V,,,,,,,,,,N*53
$GPRMC,,V,,,,,,,,,, Sat Apr  9 09:40:43 2022
Recv from 127.0.0.1:1573, Data:$GPRMC,,V,,,,,,,,,,N*53
$GPRMC,,V,,,,,,,,,, Sat Apr  9 09:40:45 2022
Recv from 127.0.0.1:1573, Data:$GPRMC,,V,,,,,,,,,,N*53
$GPRMC,,V,,,,,,,,,, Sat Apr  9 09:40:47 2022
Recv from 127.0.0.1:1573, Data:$GPRMC,,V,,,,,,,,,,N*53
$GPRMC,,V,, Sat Apr  9 09:40:49 2022
Recv from 127.0.0.1:1708, Data:$GPRMC,,V,,,,,,,,,,N*53
$GPRMC,,V,,,,,,,,,, Sat Apr  9 09:41:29 2022
Recv from 127.0.0.1:1708, Data:$GPRMC,,V,,,,,,,,,,N*53
$GPRMC,,V,,,,,,,,,, Sat Apr  9 09:41:31 2022
Recv from 127.0.0.1:1708, Data:$GPRMC,,V,,,,,,,,,,N*53
$GPRMC,,V,,,,,,,,,, Sat Apr  9 09:41:33 2022
Recv from 127.0.0.1:1708, Data:$GPRMC,,V,,,,,,,,,,N*53
$GPRMC,,V,,,,,,,,,, Sat Apr  9 09:41:35 2022
Recv from 127.0.0.1:1708, Data:$GPRMC,,V,,,,,,,,,,N*53
$GPRMC,,V,,,,,,,,,, Sat Apr  9 09:41:37 2022
Recv from 127.0.0.1:1708, Data:$GPRMC,,V,,,,,,,,,,N*53
$GPRMC,,V,,,,,,,,,, Sat Apr  9 09:41:39 2022
Recv from 127.0.0.1:1708, Data:$GPRMC,,V,,,,,,,,,,N*53
$GPRMC,,V,,,,,,,,,, Sat Apr  9 09:41:41 2022
Recv from 127.0.0.1:1708, Data:$GPRMC,,V,,,,,,,,,,N*53
$GPRMC,,V,,,,,,,,,, Sat Apr  9 09:41:43 2022
Recv from 127.0.0.1:1708, Data:$GPRMC,,V,,,,,,,,,,N*53
$GPRMC,,V,,,,,,,,,, Sat Apr  9 09:41:45 2022
Recv from 127.0.0.1:1708, Data:$GPRMC,,V,,,,,,,,,,N*53
$GPRMC,,V,,,,,,,,,, Sat Apr  9 09:41:47 2022
Recv from 127.0.0.1:1708, Data:$GPRMC,,V,,,,,,,,,,N*53
$GPRMC,,V,,,,,,,,,, Sat Apr  9 09:41:49 2022
Recv from 127.0.0.1:1708, Data:$GPRMC,,V,,,,,,,,,,N*53
$GPRMC,,V,,,,,,,,,, Sat Apr  9 09:41:51 2022
Recv from 127.0.0.1:1708, Data:$GPRMC,,V,,,,,,,,,,N*53
$GPRMC,,V,,,,,,,,,, Sat Apr  9 09:41:52 2022
Recv from 127.0.0.1:1708, Data:$GPRMC,,V,,,,,,,,,,N*53
$GPRMC,,V,,,,,,,,,, Sat Apr  9 09:41:54 2022
Recv from 127.0.0.1:1708, Data:$GPRMC,,V,,,,,,,,,,N*53
$GPRMC,,V,,,,,,,,,, Sat Apr  9 09:41:56 2022
Recv from 127.0.0.1:1708, Data:$GPRMC,,V,,,,,,,,,,N*53
$GPRMC,,V,,,,,,,,,, Sat Apr  9 09:41:58 2022
Recv from 127.0.0.1:1708, Data:$GPRMC,,V,,,,,,,,,,N*53
$GPRMC,,V,,,,,,,,,, Sat Apr  9 09:42:00 2022
Recv from 127.0.0.1:1708, Data:$GPRMC,,V,,,,,,,,,,N*53
$GPRMC,,V,,,,,,,,,, Sat Apr  9 09:42:02 2022
Recv from 127.0.0.1:1708, Data:$GPRMC,,V,,,,,,,,,,N*53
$GPRMC,,V,,,,,,,,,, Sat Apr  9 09:42:04 2022
Recv from 127.0.0.1:1708, Data:$GPRMC,,V,,,,,,,,,,N*53
$GPRMC,,V,,,,,,,,,, Sat Apr  9 09:42:06 2022
Recv from 127.0.0.1:1708, Data:$GPRMC,,V,,,,,,,,,,N*53
$GPRMC,,V,,,,,,,,,, Sat Apr  9 09:42:08 2022
Recv from 127.0.0.1:1708, Data:$GPRMC,,V,,,,,,,,,,N*53
$GPRMC,,V,,,,,,,,,, Sat Apr  9 09:42:10 2022
Recv from 127.0.0.1:1708, Data:$GPRMC,,V,,,,,,,,,,N*53
$GPRMC,,V,,,,,,,,,, Sat Apr  9 09:42:12 2022
Recv from 127.0.0.1:1708, Data:$GPRMC,,V,,,,,,,,,,N*53
$GPRMC,,V,, Sat Apr  9 09:42:13 2022
Recv from 127.0.0.1:1949, Data:$GPRMC,,V,,,,,,,,,,N*53
$GPRMC,,V,,,,,,,,,, Sat Apr  9 09:43:51 2022
Recv from 127.0.0.1:1949, Data:$GPRMC,,V,,,,,,,,,,N*53
$GPRMC,,V,,,,,,,,,, Sat Apr  9 09:43:53 2022
Recv from 127.0.0.1:1949, Data:$GPRMC,,V,,,,,,,,,,N*53
$GPRMC,,V,,,,,,,,,, Sat Apr  9 09:43:55 2022
Recv from 127.0.0.1:1949, Data:$GPRMC,,V,,,,,,,,,,N*53
$GPRMC,,V,,,,,,,,,, Sat Apr  9 09:43:57 2022
Recv from 127.0.0.1:1949, Data:$GPRMC,014401.00,V,,,,,,,,,,N*7D
$GPRMC,01, Sat Apr  9 09:43:59 2022
Recv from 127.0.0.1:1949, Data:$GPRMC,014403.00,V,,,,,,,,,,N*7F
$GPRMC,01, Sat Apr  9 09:44:01 2022
Recv from 127.0.0.1:1949, Data:$GPRMC,014405.00,V,,,,,,,,,,N*79
$GPRMC,01, Sat Apr  9 09:44:03 2022
Recv from 127.0.0.1:1949, Data:$GPRMC,014407.00,V,,,,,,,,,,N*7B
$GPRMC,01, Sat Apr  9 09:44:05 2022
Recv from 127.0.0.1:1949, Data:$GPRMC,014407.00,V,,,,,,,,,,N*75
$GPRMC,01, Sat Apr  9 09:44:07 2022
Recv from 127.0.0.1:1949, Data:$GPRMC,014409.00,V,,,,,,,,,,N*75
$GPRMC,01, Sat Apr  9 09:44:08 2022
Recv from 127.0.0.1:1949, Data:$GPRMC,014411.00,V,,,,,,,,,,N*7C
$GPRMC,01, Sat Apr  9 09:44:10 2022
Recv from 127.0.0.1:1949, Data:$GPRMC,014413.00,V,,,,,,,,,,N*7E
$GPRMC,01, Sat Apr  9 09:44:12 2022
Recv from 127.0.0.1:1949, Data:$GPRMC,014415.00,V,,,,,,,,,,N*78
$GPRMC,01, Sat Apr  9 09:44:14 2022
Recv from 127.0.0.1:1949, Data:$GPRMC,014417.00,V,,,,,,,090422,,,N*77
$GP, Sat Apr  9 09:44:16 2022
Recv from 127.0.0.1:1949, Data:$GPRMC,014419.00,V,,,,,,,090422,,,N*79
$GP, Sat Apr  9 09:44:18 2022
Recv from 127.0.0.1:1949, Data:$GPRMC,014421.00,V,,,,,,,090422,,,N*72
$GP, Sat Apr  9 09:44:20 2022
Recv from 127.0.0.1:1949, Data:$GPRMC,014423.00,V,,,,,,,090422,,,N*70
$GP, Sat Apr  9 09:44:22 2022
Recv from 127.0.0.1:1949, Data:$GPRMC,014425.00,V,,,,,,,090422,,,N*76
$GP, Sat Apr  9 09:44:24 2022
Recv from 127.0.0.1:1949, Data:$GPRMC,014427.03,V,,,,,,,090422,,,N*77
$GP, Sat Apr  9 09:44:26 2022
Recv from 127.0.0.1:1949, Data:$GPRMC,014429.00,V,,,,,,,090422,,,N*7A
$GP, Sat Apr  9 09:44:28 2022
Recv from 127.0.0.1:1949, Data:$GPRMC,014431.00,V,,,,,,,090422,,,N*73
$GP, Sat Apr  9 09:44:29 2022
Recv from 127.0.0.1:1949, Data:$GPRMC,014434.00,A,3958.80668,N,11620.76304, Sat Apr  9 09:44:31 2022
Recv from 127.0.0.1:1949, Data:$GPRMC,014436.00,A,3958.80649,N,11620.76359, Sat Apr  9 09:44:33 2022
Recv from 127.0.0.1:1949, Data:$GPRMC,014438.00,A,3958.80652,N,116, Sat Apr  9 09:44:35 2022
Recv from 127.0.0.1:2067, Data:$GPRMC,014519.00,A,3958.80346,N,11620.76718, Sat Apr  9 09:45:16 2022
Recv from 127.0.0.1:2067, Data:$GPRMC,014521.00,A,3958.80373,N,11620.76628, Sat Apr  9 09:45:18 2022
Recv from 127.0.0.1:2067, Data:$GPRMC,014523.00,A,3958.80405,N,11620.76522, Sat Apr  9 09:45:20 2022
Recv from 127.0.0.1:2067, Data:$GPRMC,014525.00,A,3958.80447,N,11620.76403, Sat Apr  9 09:45:22 2022
Recv from 127.0.0.1:2067, Data:$GPRMC,014527.00,A,3958.80506,N,11620.76339, Sat Apr  9 09:45:24 2022
Recv from 127.0.0.1:2067, Data:$GPRMC,014528.00,V,,,,,,,090422,,,N*7A
$GP, Sat Apr  9 09:45:26 2022
Recv from 127.0.0.1:2067, Data:$GPRMC,014530.00,A,3958.80679,N,11620.84116, Sat Apr  9 09:45:28 2022
Recv from 127.0.0.1:2067, Data:$GPRMC,014532.00,A,3958.80665,N,11620.84803, Sat Apr  9 09:45:29 2022
Recv from 127.0.0.1:2067, Data:$GPRMC,014534.00,A,3958.80596,N,11620.85145, Sat Apr  9 09:45:31 2022
Recv from 127.0.0.1:2067, Data:$GPRMC,014536.00,A,3958.80536,N,11620.85459, Sat Apr  9 09:45:33 2022
Recv from 127.0.0.1:2067, Data:$GPRMC,014538.00,A,3958.80479,N,11620.85797, Sat Apr  9 09:45:35 2022
Recv from 127.0.0.1:2067, Data:$GPRMC,014540.00,A,3958.80460,N,11620.85979, Sat Apr  9 09:45:37 2022
Recv from 127.0.0.1:2067, Data:$GPRMC,014542.00,A,3958.80397,N,11620.86078, Sat Apr  9 09:45:39 2022
Recv from 127.0.0.1:2067, Data:$GPRMC,014544.00,A,3958.80334,N,11620.86199, Sat Apr  9 09:45:41 2022
Recv from 127.0.0.1:2067, Data:$GPRMC,014546.00,A,3958.80235,N,11620.86244, Sat Apr  9 09:45:43 2022
Recv from 127.0.0.1:2067, Data:$GPRMC,014548.00,A,3958.80170,N,11620.86266, Sat Apr  9 09:45:45 2022
Recv from 127.0.0.1:2067, Data:$GPRMC,014550.00,A,3958.80092,N,11620.86247, Sat Apr  9 09:45:47 2022
Recv from 127.0.0.1:2067, Data:$GPRMC,014552.00,A,3958.80030,N,11620.86169, Sat Apr  9 09:45:49 2022
Recv from 127.0.0.1:2067, Data:$GPRMC,014553.00,A,3958.80015,N,11620.86123, Sat Apr  9 09:45:51 2022
Recv from 127.0.0.1:2067, Data:$GPRMC,014555.00,A,3958.79979,N,11620.86164, Sat Apr  9 09:45:52 2022
Recv from 127.0.0.1:2067, Data:$GPRMC,014557.00,A,3958.79943,N,11620.86213, Sat Apr  9 09:45:54 2022
Recv from 127.0.0.1:2067, Data:$GPRMC,014559.00,A,3958.79896,N,11620.86247, Sat Apr  9 09:45:56 2022
Recv from 127.0.0.1:2067, Data:$GPRMC,014601.00,A,3958.79892,N,11620.86199, Sat Apr  9 09:45:58 2022
Recv from 127.0.0.1:2067, Data:$GPRMC,014603.00,A,3958.79887,N,116, Sat Apr  9 09:46:00 2022
Recv from 127.0.0.1:2200, Data:$GPRMC,014640.00,A,3958.78640,N,11620.84804, Sat Apr  9 09:46:41 2022
Recv from 127.0.0.1:2200, Data:$GPRMC,014641.00,V,,,,,,,090422,,,N*76
$GP, Sat Apr  9 09:46:43 2022
Recv from 127.0.0.1:2200, Data:$GPRMC,014643.00,V,,,,,,,090422,,,N*74
$GP, Sat Apr  9 09:46:45 2022
Recv from 127.0.0.1:2200, Data:$GPRMC,014645.00,V,,,,,,,090422,,,N*72
$GP, Sat Apr  9 09:46:47 2022
Recv from 127.0.0.1:2200, Data:$GPRMC,014647.00,V,,,,,,,090422,,,N*70
$GP, Sat Apr  9 09:46:49 2022
Recv from 127.0.0.1:2200, Data:$GPRMC,014649.00,V,,,,,,,090422,,,N*7E
$GP, Sat Apr  9 09:46:50 2022
Recv from 127.0.0.1:2200, Data:$GPRMC,014651.00,V,,,,,,,090422,,,N*77
$GP, Sat Apr  9 09:46:52 2022
Recv from 127.0.0.1:2200, Data:$GPRMC,014653.00,V,,,,,,,090422,,,N*75
$GP, Sat Apr  9 09:46:54 2022
Recv from 127.0.0.1:2200, Data:$GPRMC,014655.00,V,,,,,,,090422,,,N*73
$GP, Sat Apr  9 09:46:56 2022
Recv from 127.0.0.1:2200, Data:$GPRMC,014657.00,V,,,,,,,090422,,,N*71
$GP, Sat Apr  9 09:46:58 2022
Recv from 127.0.0.1:2200, Data:$GPRMC,014659.00,V,,,,,,,090422,,,N*7F
$GP, Sat Apr  9 09:47:00 2022
Recv from 127.0.0.1:2200, Data:$GPRMC,014701.00,V,,,,,,,090422,,,N*73
$GP, Sat Apr  9 09:47:02 2022
Recv from 127.0.0.1:2200, Data:$GPRMC,014703.00,V,,,,,,,090422,,,N*71
$GP, Sat Apr  9 09:47:04 2022
Recv from 127.0.0.1:2200, Data:$GPRMC,014705.00,V,,,,,,,090422,,,N*77
$GP, Sat Apr  9 09:47:06 2022
Recv from 127.0.0.1:2200, Data:$GPRMC,014707.00,V,,,,,,,090422,,,N*75
$GP, Sat Apr  9 09:47:08 2022
Recv from 127.0.0.1:2200, Data:$GPRMC,014709.00,V,,,,,,,090422,,,N*7B
$GP, Sat Apr  9 09:47:10 2022
Recv from 127.0.0.1:2200, Data:$GPRMC,014711.00,V,,,,,,,090422,,,N*72
$GP, Sat Apr  9 09:47:12 2022
Recv from 127.0.0.1:2200, Data:$GPRMC,014711.00,V,,,,,,,090422,,,N*72
$GP, Sat Apr  9 09:47:13 2022
Recv from 127.0.0.1:2200, Data:$GPRMC,014713.00,V,,,,,,,090422,,,N*70
$GP, Sat Apr  9 09:47:15 2022
Recv from 127.0.0.1:2200, Data:$GPRMC,014715.00,V,,,,,,,090422,,,N*76
$GP, Sat Apr  9 09:47:17 2022
Recv from 127.0.0.1:2200, Data:$GPRMC,014717.00,V,,,,,,,090422,,,N*74
$GP, Sat Apr  9 09:47:19 2022
Recv from 127.0.0.1:2200, Data:$GPRMC,014719.00,V,,,,,,,090422,,,N*7A
$GP, Sat Apr  9 09:47:21 2022
Recv from 127.0.0.1:2200, Data:$GPRMC,014721.00,V,,,,,,,090422,,,N*71
$GP, Sat Apr  9 09:47:23 2022
Recv from 127.0.0.1:2200, Data:$GPRMC,014723.00,V,,,,,,,090422,,,N, Sat Apr  9 09:47:25 2022
Recv from 127.0.0.1:2348, Data:$GPRMC,014805.00,V,,,,,,,090422,,,N*78
$GP, Sat Apr  9 09:48:06 2022
Recv from 127.0.0.1:2348, Data:$GPRMC,014807.00,V,,,,,,,090422,,,N*7A
$GP, Sat Apr  9 09:48:08 2022
Recv from 127.0.0.1:2348, Data:$GPRMC,014809.00,V,,,,,,,090422,,,N*74
$GP, Sat Apr  9 09:48:10 2022
Recv from 127.0.0.1:2348, Data:$GPRMC,014809.00,V,,,,,,,090422,,,N*7D
$GP, Sat Apr  9 09:48:12 2022
Recv from 127.0.0.1:2348, Data:$GPRMC,014811.00,V,,,,,,,090422,,,N*7D
$GP, Sat Apr  9 09:48:13 2022
Recv from 127.0.0.1:2348, Data:$GPRMC,014813.00,V,,,,,,,090422,,,N*7F
$GP, Sat Apr  9 09:48:15 2022
Recv from 127.0.0.1:2348, Data:$GPRMC,014815.00,V,,,,,,,090422,,,N*79
$GP, Sat Apr  9 09:48:17 2022
Recv from 127.0.0.1:2348, Data:$GPRMC,014817.00,V,,,,,,,090422,,,N*7B
$GP, Sat Apr  9 09:48:19 2022
Recv from 127.0.0.1:2348, Data:$GPRMC,014819.00,V,,,,,,,090422,,,N*75
$GP, Sat Apr  9 09:48:21 2022
Recv from 127.0.0.1:2348, Data:$GPRMC,014821.00,V,,,,,,,090422,,,N*7E
$GP, Sat Apr  9 09:48:23 2022
Recv from 127.0.0.1:2348, Data:$GPRMC,014823.00,V,,,,,,,090422,,,N*7C
$GP, Sat Apr  9 09:48:25 2022
Recv from 127.0.0.1:2348, Data:$GPRMC,014825.00,V,,,,,,,090422,,,N*7A
$GP, Sat Apr  9 09:48:27 2022
Recv from 127.0.0.1:2348, Data:$GPRMC,014827.00,V,,,,,,,090422,,,N*78
$GP, Sat Apr  9 09:48:29 2022
Recv from 127.0.0.1:2348, Data:$GPRMC,014829.00,V,,,,,,,090422,,,N*76
$GP, Sat Apr  9 09:48:31 2022
Recv from 127.0.0.1:2348, Data:$GPRMC,014831.00,V,,,,,,,090422,,,N*7F
$GP, Sat Apr  9 09:48:33 2022
Recv from 127.0.0.1:2348, Data:$GPRMC,014833.00,V,,,,,,,090422,,,N*7D
$GP, Sat Apr  9 09:48:34 2022
Recv from 127.0.0.1:2348, Data:$GPRMC,014835.00,V,,,,,,,090422,,,N*7B
$GP, Sat Apr  9 09:48:36 2022
Recv from 127.0.0.1:2348, Data:$GPRMC,014837.00,V,,,,,,,090422,,,N*79
$GP, Sat Apr  9 09:48:38 2022
Recv from 127.0.0.1:2348, Data:$GPRMC,014839.00,V,,,,,,,090422,,,N*77
$GP, Sat Apr  9 09:48:40 2022
Recv from 127.0.0.1:2348, Data:$GPRMC,014841.00,V,,,,,,,090422,,,N*78
$GP, Sat Apr  9 09:48:42 2022
Recv from 127.0.0.1:2348, Data:$GPRMC,014843.00,V,,,,,,,090422,,,N*7A
$GP, Sat Apr  9 09:48:44 2022
Recv from 127.0.0.1:2348, Data:$GPRMC,014845.00,V,,,,,,,090422,,,N*7C
$GP, Sat Apr  9 09:48:46 2022
Recv from 127.0.0.1:2348, Data:$GPRMC,014847.00,V,,,,,,,090422,,,N*7E
$GP, Sat Apr  9 09:48:48 2022
Recv from 127.0.0.1:2348, Data:$GPRMC,014849.00,V,,,,,,,090422,,,N, Sat Apr  9 09:48:50 2022
Recv from 127.0.0.1:2484, Data:$GPRMC,014929.00,V,,,,,,,090422,,,N*77
$GP, Sat Apr  9 09:49:31 2022
Recv from 127.0.0.1:2484, Data:$GPRMC,014931.00,V,,,,,,,090422,,,N*7E
$GP, Sat Apr  9 09:49:33 2022
Recv from 127.0.0.1:2484, Data:$GPRMC,014933.00,V,,,,,,,090422,,,N*7C
$GP, Sat Apr  9 09:49:34 2022
Recv from 127.0.0.1:2484, Data:$GPRMC,014935.00,V,,,,,,,090422,,,N*7A
$GP, Sat Apr  9 09:49:36 2022
Recv from 127.0.0.1:2484, Data:$GPRMC,014937.00,V,,,,,,,090422,,,N*78
$GP, Sat Apr  9 09:49:38 2022
Recv from 127.0.0.1:2484, Data:$GPRMC,014940.00,A,3958.76559,N,11620.84489, Sat Apr  9 09:49:40 2022
Recv from 127.0.0.1:2484, Data:$GPRMC,014942.00,A,3958.76295,N,11620.84703, Sat Apr  9 09:49:42 2022
Recv from 127.0.0.1:2484, Data:$GPRMC,014944.00,A,3958.76319,N,11620.84366, Sat Apr  9 09:49:44 2022
Recv from 127.0.0.1:2484, Data:$GPRMC,014946.00,A,3958.76403,N,11620.84361, Sat Apr  9 09:49:46 2022
Recv from 127.0.0.1:2484, Data:$GPRMC,014948.00,A,3958.76300,N,11620.84391, Sat Apr  9 09:49:48 2022
Recv from 127.0.0.1:2484, Data:$GPRMC,014950.00,A,3958.76231,N,11620.84435, Sat Apr  9 09:49:50 2022
Recv from 127.0.0.1:2484, Data:$GPRMC,014952.00,A,3958.76268,N,11620.84277, Sat Apr  9 09:49:52 2022
Recv from 127.0.0.1:2484, Data:$GPRMC,014954.00,A,3958.76187,N,11620.84219, Sat Apr  9 09:49:54 2022
Recv from 127.0.0.1:2484, Data:$GPRMC,014955.00,A,3958.76159,N,11620.84134, Sat Apr  9 09:49:56 2022
Recv from 127.0.0.1:2484, Data:$GPRMC,014957.00,A,3958.76116,N,11620.83945, Sat Apr  9 09:49:57 2022
Recv from 127.0.0.1:2484, Data:$GPRMC,014958.00,V,,,,,,,090422,,,N*71
$GP, Sat Apr  9 09:49:59 2022
Recv from 127.0.0.1:2484, Data:$GPRMC,015001.00,A,3958.75936,N,11620.83685, Sat Apr  9 09:50:01 2022
Recv from 127.0.0.1:2484, Data:$GPRMC,015003.00,A,3958.75875,N,11620.83482, Sat Apr  9 09:50:03 2022
Recv from 127.0.0.1:2484, Data:$GPRMC,015005.00,A,3958.75792,N,11620.83533, Sat Apr  9 09:50:05 2022
Recv from 127.0.0.1:2484, Data:$GPRMC,015007.00,A,3958.75812,N,11620.83148, Sat Apr  9 09:50:07 2022
Recv from 127.0.0.1:2484, Data:$GPRMC,015009.00,A,3958.75780,N,11620.83176, Sat Apr  9 09:50:09 2022
Recv from 127.0.0.1:2484, Data:$GPRMC,015011.00,A,3958.75801,N,11620.83027, Sat Apr  9 09:50:11 2022
Recv from 127.0.0.1:2484, Data:$GPRMC,015013.00,A,3958.75780,N,11620.82959, Sat Apr  9 09:50:13 2022
Recv from 127.0.0.1:2484, Data:$GPRMC,015015.00,A,3958.75778,N,116, Sat Apr  9 09:50:15 2022
Recv from 127.0.0.1:2644, Data:$GPRMC,015055.00,A,3958.75602,N,11620.85213, Sat Apr  9 09:50:56 2022
Recv from 127.0.0.1:2644, Data:$GPRMC,015057.00,A,3958.75600,N,11620.85158, Sat Apr  9 09:50:57 2022
Recv from 127.0.0.1:2644, Data:$GPRMC,015059.00,A,3958.75616,N,11620.85027, Sat Apr  9 09:50:59 2022
Recv from 127.0.0.1:2644, Data:$GPRMC,015101.00,A,3958.75634,N,11620.84934, Sat Apr  9 09:51:01 2022
Recv from 127.0.0.1:2644, Data:$GPRMC,015103.00,A,3958.75646,N,11620.84818, Sat Apr  9 09:51:03 2022
Recv from 127.0.0.1:2644, Data:$GPRMC,015105.00,A,3958.75658,N,11620.84703, Sat Apr  9 09:51:05 2022
Recv from 127.0.0.1:2644, Data:$GPRMC,015107.00,A,3958.75663,N,11620.84596, Sat Apr  9 09:51:07 2022
Recv from 127.0.0.1:2644, Data:$GPRMC,015109.00,A,3958.75647,N,11620.84520, Sat Apr  9 09:51:09 2022
Recv from 127.0.0.1:2644, Data:$GPRMC,015111.00,A,3958.75643,N,11620.84484, Sat Apr  9 09:51:11 2022
Recv from 127.0.0.1:2644, Data:$GPRMC,015113.00,A,3958.75644,N,11620.84453, Sat Apr  9 09:51:13 2022
Recv from 127.0.0.1:2644, Data:$GPRMC,015115.00,A,3958.75655,N,11620.84414, Sat Apr  9 09:51:15 2022
Recv from 127.0.0.1:2644, Data:$GPRMC,015116.00,A,3958.75661,N,11620.84371, Sat Apr  9 09:51:17 2022
Recv from 127.0.0.1:2644, Data:$GPRMC,015118.00,A,3958.75672,N,11620.84356, Sat Apr  9 09:51:18 2022
Recv from 127.0.0.1:2644, Data:$GPRMC,015120.00,A,3958.75689,N,11620.84307, Sat Apr  9 09:51:20 2022
Recv from 127.0.0.1:2644, Data:$GPRMC,015122.00,A,3958.75720,N,11620.84300, Sat Apr  9 09:51:22 2022
Recv from 127.0.0.1:2644, Data:$GPRMC,015124.00,A,3958.75725,N,11620.84294, Sat Apr  9 09:51:24 2022
Recv from 127.0.0.1:2644, Data:$GPRMC,015126.00,A,3958.75737,N,11620.84312, Sat Apr  9 09:51:26 2022
Recv from 127.0.0.1:2644, Data:$GPRMC,015128.00,A,3958.75749,N,11620.84279, Sat Apr  9 09:51:28 2022
Recv from 127.0.0.1:2644, Data:$GPRMC,015130.00,A,3958.75744,N,11620.84277, Sat Apr  9 09:51:30 2022
Recv from 127.0.0.1:2644, Data:$GPRMC,015132.00,A,3958.75719,N,11620.84339, Sat Apr  9 09:51:32 2022
Recv from 127.0.0.1:2644, Data:$GPRMC,015134.00,A,3958.75701,N,11620.84439, Sat Apr  9 09:51:34 2022
Recv from 127.0.0.1:2644, Data:$GPRMC,015136.00,A,3958.75670,N,11620.84543, Sat Apr  9 09:51:36 2022
Recv from 127.0.0.1:2644, Data:$GPRMC,015138.00,A,3958.75637,N,11620.84622, Sat Apr  9 09:51:38 2022
Recv from 127.0.0.1:2644, Data:$GPRMC,015139.00,A,3958.75625,N,116, Sat Apr  9 09:51:40 2022
Recv from 127.0.0.1:2787, Data:$GPRMC,015220.00,A,3958.75935,N,11620.82862, Sat Apr  9 09:52:20 2022
Recv from 127.0.0.1:2787, Data:$GPRMC,015222.00,A,3958.75948,N,11620.82742, Sat Apr  9 09:52:22 2022
Recv from 127.0.0.1:2787, Data:$GPRMC,015224.00,A,3958.75936,N,11620.82724, Sat Apr  9 09:52:24 2022
Recv from 127.0.0.1:2787, Data:$GPRMC,015226.00,A,3958.75919,N,11620.82710, Sat Apr  9 09:52:26 2022
Recv from 127.0.0.1:2787, Data:$GPRMC,015228.00,A,3958.75902,N,11620.82706, Sat Apr  9 09:52:28 2022
Recv from 127.0.0.1:2787, Data:$GPRMC,015230.00,A,3958.75914,N,11620.82652, Sat Apr  9 09:52:30 2022
Recv from 127.0.0.1:2787, Data:$GPRMC,015232.00,A,3958.75954,N,11620.82546, Sat Apr  9 09:52:32 2022
Recv from 127.0.0.1:2787, Data:$GPRMC,015234.00,A,3958.75995,N,11620.82453, Sat Apr  9 09:52:34 2022
Recv from 127.0.0.1:2787, Data:$GPRMC,015236.00,A,3958.76034,N,11620.82345, Sat Apr  9 09:52:36 2022
Recv from 127.0.0.1:2787, Data:$GPRMC,015238.00,A,3958.76067,N,11620.82243, Sat Apr  9 09:52:38 2022
Recv from 127.0.0.1:2787, Data:$GPRMC,015239.00,A,3958.76090,N,11620.82177, Sat Apr  9 09:52:40 2022
Recv from 127.0.0.1:2787, Data:$GPRMC,015241.00,A,3958.76133,N,11620.82043, Sat Apr  9 09:52:41 2022
